SummitCode,AssociationName,RegionName,SummitName,Longitude,Latitude,Points,BonusPoints,ValidFrom,ValidTo,ActivationCount,ActivationDate,ActivationCall
4O/IC-001,Montenegro,Istok Crne Gore,Maja Rosit,19.8505,42.4795,10,3,43525,73050,1,44769,4O/SQ9MDF/P
4O/IC-006,Montenegro,Istok Crne Gore,Hajla,20.1388,42.7575,10,3,43525,73050,1,44450,4O/S55VN/P
4O/IC-012,Montenegro,Istok Crne Gore,Plana (Bandera),19.8863,42.6101,10,3,43525,73050,1,45116,4O/YU1CA/P
4O/IC-018,Montenegro,Istok Crne Gore,Maja Bors,19.9061,42.5077,8,3,43525,73050,2,44768,4O/SQ9NOT/P
4O/IC-025,Montenegro,Istok Crne Gore,Vaganica,20.0003,42.6892,8,3,43525,73050,1,45115,4O/YU1CA/P
4O/IC-029,Montenegro,Istok Crne Gore,Planinica,20.015,42.6824,8,3,43525,73050,1,45115,4O/YU1CA/P
4O/IC-034,Montenegro,Istok Crne Gore,Prijedolska glava,19.9357,42.7021,8,3,43525,73050,1,45116,4O/YU1CA/P
4O/IC-035,Montenegro,Istok Crne Gore,Ogorela glava,19.6238,42.8648,8,3,43525,73050,1,45557,4O/IN3EHQ/P
4O/IC-055,Montenegro,Istok Crne Gore,Å½ilindar,20.0122,43.0425,6,3,43525,73050,1,44719,4O/YU4MNO
4O/JC-001,Montenegro,Jug Crne Gore,ZubaÄki kabao,18.5442,42.569,8,3,43525,73050,1,44382,4O/YU4MNO/P
4O/JC-002,Montenegro,Jug Crne Gore,Å tirovnik,18.8187,42.3993,6,3,43525,73050,3,45351,4O/YU1CA/P
4O/JC-003,Montenegro,Jug Crne Gore,Subra,18.5381,42.5243,6,3,43525,73050,2,44790,4O/YU4MNO/P
4O/JC-004,Montenegro,Jug Crne Gore,Jezerski vrh,18.8376,42.4,6,3,43525,73050,22,45565,4O/S56LXN/P
4O/JC-005,Montenegro,Jug Crne Gore,Babljak,18.8202,42.3885,6,3,43525,73050,6,45566,4O/DJ2TG
4O/JC-006,Montenegro,Jug Crne Gore,Rumija,19.1888,42.1031,6,3,43525,73050,3,44772,4O/SQ9NOT/P
4O/JC-008,Montenegro,Jug Crne Gore,Odijevo,18.5289,42.5074,6,3,43525,73050,2,44790,4O/YU4MNO/P
4O/JC-009,Montenegro,Jug Crne Gore,TreÅ¡tenski vrh,18.8425,42.3722,6,3,43525,73050,6,45565,4O/DJ2TG
4O/JC-011,Montenegro,Jug Crne Gore,Ubaljski Kabao,18.5908,42.508,6,3,43525,73050,2,44791,4O/YU4MNO/P
4O/JC-012,Montenegro,Jug Crne Gore,Siljevik,18.5634,42.5021,6,3,43525,73050,3,44790,4O/YU4MNO/P
4O/JC-015,Montenegro,Jug Crne Gore,BaÅ¡tik,18.6149,42.5216,6,3,43525,73050,1,44791,4O/YU4MNO/P
4O/JC-016,Montenegro,Jug Crne Gore,LoÅ¡ka,19.1733,42.0648,6,3,43525,73050,3,44770,4O/SQ9NOT/P
4O/JC-018,Montenegro,Jug Crne Gore,Mrajanik,18.8003,42.4385,4,3,43525,73050,1,44680,4O/YU0W/P
4O/JC-025,Montenegro,Jug Crne Gore,Velji vrh,18.6803,42.5582,4,3,43525,73050,1,44382,4O/YU4MNO/P
4O/JC-033,Montenegro,Jug Crne Gore,Vrsuta,19.086,42.1537,4,3,43525,73050,6,45559,4O/IN3EHQ/P
4O/JC-055,Montenegro,Jug Crne Gore,Velji KosmaÄ,18.9328,42.2318,2,0,43525,73050,1,45507,4O/SQ9JTR/P
4O/JC-057,Montenegro,Jug Crne Gore,Ilijino brdo,18.7093,42.4984,2,0,43525,73050,1,44375,4O/YU4MNO/P
4O/JC-058,Montenegro,Jug Crne Gore,Ilino brdo,19.0099,42.2037,2,0,43525,73050,1,45151,4O/SQ9MDN/P
4O/JC-061,Montenegro,Jug Crne Gore,Rasovac,19.2382,42.0343,2,0,43525,73050,1,45125,4O/S57NJM/P
4O/JC-062,Montenegro,Jug Crne Gore,Devesilje,18.6182,42.4649,2,0,43525,73050,1,45563,4O/DJ2TG
4O/JC-063,Montenegro,Jug Crne Gore,Sveti Ilija,18.7313,42.4486,2,0,43525,73050,2,44676,4O/YU0W/P
4O/JC-065,Montenegro,Jug Crne Gore,Velji vrh,18.7133,42.4591,2,0,43525,73050,2,44676,4O/YU0W/P
4O/JC-072,Montenegro,Jug Crne Gore,Kobilica,19.2114,41.977,2,0,43525,73050,1,44464,4O4A/P
4O/JC-074,Montenegro,Jug Crne Gore,Obosnik,18.6108,42.4092,2,0,43525,73050,6,45361,4O/E73DX
4O/JC-077,Montenegro,Jug Crne Gore,Velji grad,19.015,42.1515,1,0,43525,73050,4,45509,4O/SQ9JTR/P
4O/JC-082,Montenegro,Jug Crne Gore,KomaraÅ¡tik,19.0722,42.2888,1,0,43525,73050,2,45095,4O/SP9PND/P
4O/JC-086,Montenegro,Jug Crne Gore,PrÄja glava,18.7362,42.3455,1,0,43525,73050,2,43701,4O/YO6PIB/P
4O/JC-089,Montenegro,Jug Crne Gore,Spas,18.823,42.2837,1,0,43525,73050,7,45512,4O/SQ9JTR/P
4O/JC-093,Montenegro,Jug Crne Gore,Velji vrh,19.1309,42.2745,1,0,43525,73050,1,45205,4O/SP3LRS/P
4O/JC-098,Montenegro,Jug Crne Gore,Stolovi,19.1894,42.3243,1,0,43525,73050,1,43631,4O/SQ9MDN/P
4O/ZC-001,Montenegro,Zapad Crne Gore,Bobotov kuk,19.0348,43.1281,10,3,43525,73050,6,45558,4O/IN3EHQ/P
4O/ZC-002,Montenegro,Zapad Crne Gore,Å ljeme,19.0648,43.1141,10,3,43525,73050,4,45484,4O/YU5MNO/P
4O/ZC-003,Montenegro,Zapad Crne Gore,Veliki Vitao,18.7571,43.2255,10,3,43525,73050,1,44692,4O/YU4MNO/P
4O/ZC-004,Montenegro,Zapad Crne Gore,PrutaÅ¡,19.0013,43.1267,10,3,43525,73050,4,45514,4O/YU5MNO/P
4O/ZC-005,Montenegro,Zapad Crne Gore,Veliki MagliÄ‡ (Crnogorski MagliÄ‡),18.7357,43.2759,10,3,43525,73050,1,43759,40/HB9DUM/P
4O/ZC-009,Montenegro,Zapad Crne Gore,Sedlena greda,19.0536,43.088,10,3,43525,73050,7,45567,4O/DJ2TG
4O/ZC-010,Montenegro,Zapad Crne Gore,Lastva,19.2491,42.8395,10,3,43525,73050,1,44378,4O/YU4MNO/P
4O/ZC-013,Montenegro,Zapad Crne Gore,Å tuoc,19.0456,43.169,10,3,43525,73050,3,45604,4O/YU5MNO/P
4O/ZC-014,Montenegro,Zapad Crne Gore,Raklje,18.9833,43.1393,10,3,43525,73050,1,45514,4O/YU5MNO/P
4O/ZC-015,Montenegro,Zapad Crne Gore,RuÅ¾ica,18.9752,43.1104,8,3,43525,73050,1,44778,4O/SQ9MDF/P
4O/ZC-016,Montenegro,Zapad Crne Gore,StoÅ¾ac,19.2545,42.8094,8,3,43525,73050,1,44378,4O/YU4MNO/P
4O/ZC-017,Montenegro,Zapad Crne Gore,MeÄ‘eÄ‘i vrh,19.2863,42.7302,8,3,43525,73050,1,44379,4O/YU4MNO/P
4O/ZC-019,Montenegro,Zapad Crne Gore,Kurozeb,19.2409,42.7549,8,3,43525,73050,1,44379,4O/YU4MNO/P
4O/ZC-024,Montenegro,Zapad Crne Gore,Vojnovac,19.2675,42.8223,8,3,43525,73050,1,44378,4O/YU4MNO/P
4O/ZC-029,Montenegro,Zapad Crne Gore,Veliki Å½urim,19.1836,42.8344,8,3,43525,73050,1,44377,4O/YU4MNO/P
4O/ZC-031,Montenegro,Zapad Crne Gore,Suvor,18.7688,43.185,8,3,43525,73050,1,44692,4O/YU4MNO/P
4O/ZC-034,Montenegro,Zapad Crne Gore,Orlovac,18.6798,43.1911,8,3,43525,73050,1,44693,4O/YU4MNO/P
4O/ZC-035,Montenegro,Zapad Crne Gore,RuÅ¾ica,18.7655,43.0923,8,3,43525,73050,1,44691,4O/YU4MNO/P
4O/ZC-038,Montenegro,Zapad Crne Gore,Borovnik,19.1526,42.8239,8,3,43525,73050,1,44377,4O/YU4MNO/P
4O/ZC-043,Montenegro,Zapad Crne Gore,Dobreljica,18.6981,43.0947,8,3,43525,73050,1,44691,4O/YU4MNO/P
4O/ZC-045,Montenegro,Zapad Crne Gore,Kuk,18.6944,43.21,8,3,43525,73050,1,44693,4O/YU4MNO/P
4O/ZC-053,Montenegro,Zapad Crne Gore,Velika Orujica,19.2106,43.0644,8,3,43525,73050,1,45510,4O/YU5MNO/P
4O/ZC-055,Montenegro,Zapad Crne Gore,Vagan,18.894,43.219,8,3,43525,73050,1,44690,4O/YU4MNO/P
4O/ZC-079,Montenegro,Zapad Crne Gore,Crni vrh,19.3351,43.179,6,3,43525,73050,1,45500,4O/S57NJM/P
4O/ZC-081,Montenegro,Zapad Crne Gore,RazvrÅ¡je,18.7776,43.1406,6,3,43525,73050,3,44693,4O/YU4MNO/P
4O/ZC-083,Montenegro,Zapad Crne Gore,KozlinovaÄa,19.2871,43.1813,6,3,43525,73050,2,45569,4O/DJ2TG
4O/ZC-099,Montenegro,Zapad Crne Gore,Zavorovi,18.8571,43.1407,4,3,43525,73050,2,43724,4O/HA8LLH
4O/ZC-118,Montenegro,Zapad Crne Gore,ToviÄ‡,19.0006,42.8106,4,3,43525,73050,2,44777,4O/SQ9MDF/P
4O/ZC-119,Montenegro,Zapad Crne Gore,Rarski rog,19.7561,43.1617,4,3,43525,73050,1,44678,YU4MNO
4X/NI-001,Israel,North Israel,Mount Meron,35.4137,32.99765,10,3,42979,73050,5,45047,4X/KC0NAH
4X/NI-002,Israel,North Israel,4X/NI-002,35.3723,33.0323,8,0,42979,73050,6,45047,4X/KC0NAH
4X/NI-003,Israel,North Israel,4X/NI-003,35.5034,32.9839,8,0,42979,73050,3,45047,4X/KC0NAH
4X/NI-004,Israel,North Israel,4X/NI-004,35.3409,33.0114,6,0,42979,73050,3,44731,4Z5OI/P
4X/NI-005,Israel,North Israel,Kamon,35.3617,32.9086,6,0,42979,73050,1,45099,4X6FB/P
4X/NI-006,Israel,North Israel,4X/NI-006,35.4028,32.9,4,0,42979,73050,1,44287,4Z5OI/P
4X/NI-007,Israel,North Israel,4X/NI-007,35.3354,32.7227,4,0,42979,73050,1,43103,4X/W1DMH
4X/NI-008,Israel,North Israel,Mount Tabor,35.3896,32.6873,4,0,42979,73050,3,45090,4X6FB/P
4X/NI-009,Israel,North Israel,4X/NI-009,35.3745,32.7961,2,0,42979,73050,2,45089,4Z5OT
4X/NI-010,Israel,North Israel,Mount Carmel,35.05,32.7304,2,0,42979,73050,4,45247,4X6FB/P
4X/NI-013,Israel,North Israel,4X/NI-013,35.3737,32.8487,2,0,42979,73050,1,44150,4Z5OI/P
4X/NI-014,Israel,North Israel,4X/NI-014,35.5186,32.6742,1,0,42979,73050,1,44849,4Z5OI/P
4X/NI-015,Israel,North Israel,4X/NI-015,35.5213,32.5956,1,0,42979,73050,4,45418,4X/SQ9MDN/P
4X/SI-001,Israel,South Israel,Mount Ramon,34.6358,30.5024,8,0,42979,73050,3,44694,4Z5OT
5B/CY-001,Cyprus,Cyprus,Î§Î¹Î¿Î½Î¯ÏƒÏ„ÏÎ± (Chionistra),32.8644,34.9364,10,3,43497,73050,26,45617,5B/HB9HCS/P
5B/CY-002,Cyprus,Cyprus,ÎœÎ±Î´Î±ÏÎ® (Madari),32.9946,34.9549,10,3,43497,73050,18,45661,5B4AQX/P
5B/CY-003,Cyprus,Cyprus,Î Î±Ï€Î¿ÏÏ„ÏƒÎ± (Papoutsa),33.0586,34.8997,10,3,43497,73050,9,45617,5B/HB9HCS/P
5B/CY-004,Cyprus,Cyprus,ÎšÎ¹ÏŒÎ½Î¹Î± (Kionia),33.1922,34.9203,10,3,43497,73050,2,45615,5B/HB9HCS/P
5B/CY-005,Cyprus,Cyprus,ÎœÎ¿ÏÏ„Ï„Î· Ï„Î·Ï‚ Î¤ÏÎµÎ¼ÎµÎ¸Î¿Ï…ÏƒÎ¬ÏÎ±Ï‚ (Moutti tis Tremethousaras),32.6808,34.9947,10,3,43497,73050,6,45622,5B4AQX/P
5B/CY-006,Cyprus,Cyprus,ÎœÎ¿ÏÏ„Ï„Î· Ï„Î¿Ï…Ï‚ Î£Î¹Î»Î»Î»Î¹Î½Î¹Î´ÎµÏ‚ (Moutti tous Chillinides),33.1489,34.9081,10,3,43497,73050,2,45615,5B/HB9HCS/P
5B/CY-007,Cyprus,Cyprus,Î˜ÏÎ¿Î½Î¯ (Throni),32.7311,34.9828,10,3,43497,73050,7,45620,5B/HB9HCS/P
5B/CY-008,Cyprus,Cyprus,ÎšÎ¿ÎºÎºÎ¹Î½ÏŒÎºÏÎµÎ¼Î¼Î¿Ï‚ (Kokkinokremmos),32.7378,34.955,8,0,43497,73050,1,45620,5B/HB9HCS/P
5B/CY-009,Cyprus,Cyprus,ÎœÎ¿ÏÏ„Ï„Î· Ï„Î·Ï‚ Î–Î±Ï‡Î±ÏÎ¿ÏÏ‚ (Moutti tis Zacharous),32.6214,35.0478,8,0,43497,73050,1,43891,5B/AI4SV
5B/CY-010,Cyprus,Cyprus,ÎœÎ±Ï…ÏÎ¿Î³Î­Î½Î·Ï‚ (Mavrogenis),32.7622,34.9708,8,0,43497,73050,2,44269,5B4APL/P
5B/CY-011,Cyprus,Cyprus,ÎœÎ¿ÏÏ„Ï„Î· Ï„Î·Ï‚ Î›Î±ÎºÎµÏÎ®Ï‚ (Moutti tis Lakeris),33.1083,34.9469,8,0,43497,73050,2,43603,5B/SQ9NOT/P
5B/CY-012,Cyprus,Cyprus,ÎœÎ¿ÏÏ„Ï„Î· Ï„Î¿Ï… Î‘Ï†Î¬Î¼Î· (Moutti tou Afami),32.8408,34.8517,8,0,43497,73050,6,45358,5B/HA8PX
5B/CY-013,Cyprus,Cyprus,Î ÏÎ¿Ï†Î®Ï„Î·Ï‚ Î—Î»Î¯Î±Ï‚ (Profitis Elias),32.6331,34.9042,8,0,43497,73050,6,45619,5B/HB9HCS/P
5B/CY-014,Cyprus,Cyprus,Î£Î­Î»Î»Î± (Sella),32.7836,34.8625,6,0,43497,73050,4,45569,5B/HB9JOE/P
5B/CY-015,Cyprus,Cyprus,ÎœÎ¿ÏÏ„Ï„Î· Ï„Î·Ï‚ Î Î±Ï€Î±Î¸ÎºÎ¹Î¬Ï‚ (Moutti tis Papadias),32.7353,35.0233,6,0,43497,73050,3,45622,5B4AQX/P
5B/CY-016,Cyprus,Cyprus,ÎœÎ¿ÏÏ„Ï„Î· Ï„Î¿Ï…Ï‚ Î‘Î½Î­Î¼Î¿Ï…Ï‚ (Moutti tous Anemous),32.6413,34.9476,6,0,43497,73050,2,43602,5B/SQ9MDF/P
5B/CY-017,Cyprus,Cyprus,5B/CY-017,33.0456,34.8222,6,0,43497,73050,7,45651,5B/DL6GCA/P
5B/CY-018,Cyprus,Cyprus,ÎœÎ¿ÏÏ„Ï„Î· Ï„Î¿Ï…Ï‚ Î¦ÏÏ„Î¹Î»Î»Î¿Ï…Ï‚ (Moutti tous Fitillous),32.6358,35.0817,6,0,43497,73050,1,43891,5B/AI4SV
5B/CY-020,Cyprus,Cyprus,ÎœÎ¿ÏÏ„Ï„Î· Ï„Î¿Ï… Î¤ÏÎ¬Î³Î³Î¿Ï…Î½Î± (Moutti tou Tragouna),32.7317,35.0839,6,0,43497,73050,1,44367,5B4APL/P
5B/CY-021,Cyprus,Cyprus,Î–Î±Î»Î±ÎºÎ¬Ï‚ (Zalakas),32.9294,34.8475,6,0,43497,73050,6,45651,5B/DL6GCA/P
5B/CY-022,Cyprus,Cyprus,Î§Î±Î»Î¬Î¶Î·Ï‚ (Chalazis),33.1144,34.9794,6,0,43497,73050,1,45383,5B/SP9WZS/P
5B/CY-023,Cyprus,Cyprus,Î§Î¿Î½Ï„ÏÎ¿Î²Î¿ÏÎ½Î±ÏÎ¿Ï‚ (Khondrovounaros),32.555,35.0694,4,0,43497,73050,1,45365,5B/SP9HGN/P
5B/CY-024,Cyprus,Cyprus,ÎšÎ±ÏÏÎ±Î¼Î¿ÏÎ´Î¹ (Karramoudi),32.7033,34.8678,4,0,43497,73050,3,44066,5B4APL/P
5B/CY-025,Cyprus,Cyprus,ÎœÎ¿ÏÏ„Ï„Î· Ï„Î¿Ï… Î”Î¯Î± (Moutti tou Dia),33.0031,34.8381,4,0,43497,73050,3,44275,5B4APL/P
5B/CY-026,Cyprus,Cyprus,ÎœÎ¿ÏÏ„Ï„Î· Ï„Î¿Ï… Î§Î±ÏÎ­ÏÎ· (Moutti tou Chareri),32.6792,35.0753,4,0,43497,73050,1,44353,5B4APL/P
5B/CY-027,Cyprus,Cyprus,ÎœÎ¿ÏÏ„Ï„Î· Ï„Î¿Ï… Î§Î¿Î½Ï„ÏÎ¿Ï (Moutti tou Khondrou),32.7708,35.0856,4,0,43497,73050,1,44001,5B4APL/P
5B/CY-028,Cyprus,Cyprus,Î£Î¹Î½ÏŒÎ±Ï‚ (Sinoas),33.1744,34.8058,4,0,43497,73050,9,45671,5B/M0EFI/P
5B/CY-029,Cyprus,Cyprus,Î¤Î¿Ï†Î¿ÏÎ»Î¹Î± (Tophoulia),32.7872,34.7825,4,0,43497,73050,13,45648,5B/DL6GCA/P
5B/CY-030,Cyprus,Cyprus,ÎœÏŒÎ½Î±ÏƒÏ„ÏÎ¿Î½ (Monastron),32.6723,34.8149,4,0,43497,73050,4,45273,5B/G8JSM/P
5B/CY-031,Cyprus,Cyprus,Î’ÏÎ¬Ï‡Î¿Ï‚ Î”Î¿ÏÎ¬ (Rock Dhora),32.7288,34.7758,4,0,43497,73050,12,45648,5B/DL6GCA/P
5B/CY-032,Cyprus,Cyprus,ÎœÎ¿ÏƒÏ†Î¹Î»ÎµÏÎ® (Mosfileri),32.9761,34.8022,4,0,43497,73050,9,45650,5B/DL6GCA/P
5B/CY-033,Cyprus,Cyprus,Î’Î¿Ï…Î½Î¯ (Vouni),32.5525,34.9314,4,0,43497,73050,5,45650,5B/DL6GCA/P
5B/CY-034,Cyprus,Cyprus,Î‘Ï„ÏŒÎ¼Î¿Ï…Ï„Ï„Î· (Atomoutti),33.3144,34.9214,2,0,43497,73050,3,45652,5B/DL6GCA/P
5B/CY-035,Cyprus,Cyprus,ÎœÎ±Î¶Î¯ (Mazi),32.4391,34.8958,2,0,43497,73050,9,45650,5B/DL6GCA/P
5B/CY-036,Cyprus,Cyprus,Î Î±Ï‡Î¹Î¬ ÎœÎ¿ÏÏ„Ï„Î· (Pachia Moutti),32.5481,35,2,0,43497,73050,1,43827,5B/AI4SV
5B/CY-037,Cyprus,Cyprus,Î£Ï„Î±Ï…ÏÎ¿Î²Î¿ÏÎ½Î¹ (Stavrovouni),33.4353,34.8858,2,0,43497,73050,1,45062,5B/HB9ELZ/P
5B/CY-038,Cyprus,Cyprus,Î‘Î»ÎµÏƒÏ„ÏŒÏ‚ (Alestos),33.0225,35.0331,2,0,43497,73050,1,43826,5B/AI4SV
5B/CY-039,Cyprus,Cyprus,ÎœÎµÏÏƒÎ¹Î½Î¹Î¬ (Mersinia),32.8308,34.7669,2,0,43497,73050,9,45649,5B/DL6GCA/P
5B/CY-040,Cyprus,Cyprus,ÎšÎ¿ÏÎ¼Î±Î½Î± (Koumana),33.0242,34.7869,2,0,43497,73050,5,45651,5B/DL6GCA/P
5B/CY-041,Cyprus,Cyprus,ÎœÎ¿ÏÏ„Ï„Î· Ï„Î¿Ï… Î›Ï‰ÏÏŒÎ²Î¿Ï…Î½Î¿Ï… (Moutti tou Lorovounou),32.5972,35.1439,2,0,43497,73050,1,44001,5B4APL/P
5B/CY-042,Cyprus,Cyprus,5B/CY-042,32.4539,34.8581,2,0,43497,73050,10,45650,5B/DL6GCA/P
5B/CY-043,Cyprus,Cyprus,ÎšÏÎµÎ±Ï„ÏŒÏ‚ (Kreatos),33.1397,35.0472,2,0,43497,73050,4,44980,5B/OE5JKL/P
5B/CY-044,Cyprus,Cyprus,ÎžÏ…Î»Î¹Î¬Ï‚ (Xylias),33.3772,34.9369,2,0,43497,73050,7,45672,5B/M0EFI/P
5B/CY-045,Cyprus,Cyprus,ÎšÎ¿ÎºÎºÎ¹Î½ÏŒÎ²Î¿Ï…Ï€Ï€Î¿Ï‚ (Kokkinovouppos),32.4839,35.0092,1,0,43497,73050,2,44986,5B/OE5JKL/P
5B/CY-046,Cyprus,Cyprus,Î Î¯Ï€Î·Ï‚ (Pipis),33.4283,34.9361,1,0,43497,73050,14,45673,5B/M0EFI/P
5B/CY-047,Cyprus,Cyprus,ÎÎ­Î¿Î½ Î‘Ï€Ï€Î¹Î´Î¬ÎºÎ¹ (Neon appidhaki),33.4606,34.9328,1,0,43497,73050,7,45670,5B/M0EFI/P
5B/CY-048,Cyprus,Cyprus,ÎšÎ¿ÏÏ†Î® (Korfi),33.0981,34.7428,1,0,43497,73050,3,45653,5B/DL6GCA/P
8P/BB-001,Barbados,Barbados,Mount Hillaby,-59.5821,13.2109,1,0,44348,73050,4,45546,8P9BW
9A/DH-001,Croatia,DalmatinskaHrvatska (Dalmatian Croatia),Dinara,16.38299,44.06252,10,3,42309,73050,19,45411,9A/SP9LPK/P
9A/DH-002,Croatia,DalmatinskaHrvatska (Dalmatian Croatia),Sveti Jure,17.0538,43.34206,10,3,42309,73050,17,45412,9A/SP9LPK/P
9A/DH-003,Croatia,DalmatinskaHrvatska (Dalmatian Croatia),Sveti Ilija,16.99712,43.37149,10,3,42309,73050,10,45437,9A6CW
9A/DH-004,Croatia,DalmatinskaHrvatska (Dalmatian Croatia),Kimet,17.1121,43.28708,10,3,42309,73050,11,45412,9A/SP9LPK/P
9A/DH-005,Croatia,DalmatinskaHrvatska (Dalmatian Croatia),Svilaja,16.48491,43.79063,10,3,42309,73050,16,45672,9A3GVD/P
9A/DH-006,Croatia,DalmatinskaHrvatska (Dalmatian Croatia),Veliki Kabal,16.63733,43.52711,10,3,42309,73050,17,45620,9A/E77Z/P
9A/DH-007,Croatia,DalmatinskaHrvatska (Dalmatian Croatia),Sveti Jure,16.69208,43.48933,10,3,42309,73050,15,45381,9A6CW
9A/DH-008,Croatia,DalmatinskaHrvatska (Dalmatian Croatia),Veliki Å ibenik,17.25798,43.27607,10,3,42309,73050,6,44776,9A6CW
9A/DH-010,Croatia,DalmatinskaHrvatska (Dalmatian Croatia),Lisina,16.38238,43.85581,10,3,42309,73050,9,44866,9A6CW
9A/DH-011,Croatia,DalmatinskaHrvatska (Dalmatian Croatia),Tovarnica,16.92882,43.64069,8,3,42309,73050,16,45661,9A6CW
9A/DH-012,Croatia,DalmatinskaHrvatska (Dalmatian Croatia),GoliÄ‡,15.44833,44.35028,8,3,42309,73050,2,45200,9A/SP9WLG/P
9A/DH-013,Croatia,DalmatinskaHrvatska (Dalmatian Croatia),Karaula,16.5974,43.85793,8,3,42309,73050,12,45416,9A8RA/P
9A/DH-015,Croatia,DalmatinskaHrvatska (Dalmatian Croatia),Mihovil,17.24249,43.2642,8,3,42309,73050,4,44776,9A6CW
9A/DH-016,Croatia,DalmatinskaHrvatska (Dalmatian Croatia),Ilijin vrh,18.35174,42.57394,8,3,42309,73050,3,44645,9A/E70AA/P
9A/DH-017,Croatia,DalmatinskaHrvatska (Dalmatian Croatia),Bat,16.32982,43.96296,8,3,42309,73050,12,45658,9A8RA/P
9A/DH-020,Croatia,DalmatinskaHrvatska (Dalmatian Croatia),Bukovo pleÄ‡e,15.62496,44.27433,8,3,42309,73050,6,45210,9A/SP9WLG/P
9A/DH-022,Croatia,DalmatinskaHrvatska (Dalmatian Croatia),Velika Kapela,17.19415,43.19184,8,3,42309,73050,5,44478,9A8RA/P
9A/DH-023,Croatia,DalmatinskaHrvatska (Dalmatian Croatia),ÄŒavinica,16.16981,43.92454,8,3,42309,73050,20,45531,9A/YO5MCM/P
9A/DH-024,Croatia,DalmatinskaHrvatska (Dalmatian Croatia),Zelenika,16.26971,44.10551,8,3,42309,73050,7,45206,9A8RA/P
9A/DH-025,Croatia,DalmatinskaHrvatska (Dalmatian Croatia),Bojin kuk,15.4121,44.34889,8,3,42309,73050,4,45191,9A/SP9WLG/P
9A/DH-026,Croatia,DalmatinskaHrvatska (Dalmatian Croatia),Crni vrh,15.50282,44.33105,8,3,42309,73050,3,45207,9A/SP9WLG/P
9A/DH-027,Croatia,DalmatinskaHrvatska (Dalmatian Croatia),Kunica,16.34185,43.91548,8,3,42309,73050,3,44801,9A8RA/P
9A/DH-029,Croatia,DalmatinskaHrvatska (Dalmatian Croatia),Sveti Rok,17.3328,43.21658,6,3,42309,73050,3,44534,9A8RA/P
9A/DH-030,Croatia,DalmatinskaHrvatska (Dalmatian Croatia),VrÅ¡ina,16.30182,44.06818,6,3,42309,73050,7,44954,9A8RA/P
9A/DH-032,Croatia,DalmatinskaHrvatska (Dalmatian Croatia),Neprobic,17.91285,42.8074,6,3,42309,73050,2,44725,9A6ZE/P
9A/DH-033,Croatia,DalmatinskaHrvatska (Dalmatian Croatia),Viliki vrh,16.37434,43.77719,6,3,42309,73050,10,44891,9A6CW
9A/DH-034,Croatia,DalmatinskaHrvatska (Dalmatian Croatia),Sveti Ilija,17.15954,42.99627,6,3,42309,73050,10,45569,9A/E77Z/P
9A/DH-035,Croatia,DalmatinskaHrvatska (Dalmatian Croatia),Jovinov kuk,15.35388,44.3746,6,3,42309,73050,1,43635,9A/S50VD/P
9A/DH-036,Croatia,DalmatinskaHrvatska (Dalmatian Croatia),LiÅ¡nica,16.7683,43.46656,6,3,42309,73050,8,45185,9A6CW
9A/DH-037,Croatia,DalmatinskaHrvatska (Dalmatian Croatia),Glavica,16.5654,43.69461,6,3,42309,73050,14,45413,9A6CW
9A/DH-038,Croatia,DalmatinskaHrvatska (Dalmatian Croatia),Maglaj,16.95037,43.55872,6,3,42309,73050,11,45277,9A6CW
9A/DH-039,Croatia,DalmatinskaHrvatska (Dalmatian Croatia),Å apaÅ¡nik,17.30873,43.15662,6,3,42309,73050,2,45010,9A6CW
9A/DH-040,Croatia,DalmatinskaHrvatska (Dalmatian Croatia),Velika Vidovica,17.19958,43.23553,6,3,42309,73050,5,44542,9A8RA/P
9A/DH-041,Croatia,DalmatinskaHrvatska (Dalmatian Croatia),Velika OrljaÄa,17.03609,43.42957,6,3,42309,73050,10,45641,9A6CW
9A/DH-042,Croatia,DalmatinskaHrvatska (Dalmatian Croatia),Tmor,17.85933,42.83385,4,3,42309,73050,1,44007,9A6ZE/P
9A/DH-043,Croatia,DalmatinskaHrvatska (Dalmatian Croatia),Veliki Vilinjak,17.07,43.4475,4,3,42309,73050,3,44443,9A6CW
9A/DH-045,Croatia,DalmatinskaHrvatska (Dalmatian Croatia),PiljevaÄa,17.13588,43.39153,4,3,42309,73050,2,44906,9A8RA/P
9A/DH-046,Croatia,DalmatinskaHrvatska (Dalmatian Croatia),Vidakov kuk,15.46581,44.32237,4,3,42309,73050,4,45571,9A6CW
9A/DH-047,Croatia,DalmatinskaHrvatska (Dalmatian Croatia),Kula,16.73091,43.43091,4,3,42309,73050,13,45416,9A6CW
9A/DH-048,Croatia,DalmatinskaHrvatska (Dalmatian Croatia),SidoÄ,16.99027,43.44841,4,3,42309,73050,2,43533,9A8RA/P
9A/DH-049,Croatia,DalmatinskaHrvatska (Dalmatian Croatia),Rimnica,16.90459,43.56983,4,3,42309,73050,1,44471,9A6CW
9A/DH-050,Croatia,DalmatinskaHrvatska (Dalmatian Croatia),Movran,16.41298,43.69276,4,3,42309,73050,13,45633,9A6CW
9A/DH-051,Croatia,DalmatinskaHrvatska (Dalmatian Croatia),KrpuÅ¡njak,16.32139,43.74693,4,3,42309,73050,2,44583,9A3GVD/P
9A/DH-052,Croatia,DalmatinskaHrvatska (Dalmatian Croatia),Kozji rat,16.83091,43.41376,4,3,42309,73050,10,45325,9A6CW
9A/DH-053,Croatia,DalmatinskaHrvatska (Dalmatian Croatia),Vidova gora,16.61979,43.2797,4,3,42309,73050,10,45474,9A/OE5JFE/P
9A/DH-054,Croatia,DalmatinskaHrvatska (Dalmatian Croatia),Kozjak,16.40895,43.57074,4,3,42309,73050,12,45445,9A6CW
9A/DH-055,Croatia,DalmatinskaHrvatska (Dalmatian Croatia),Sveti Ilija,17.37567,43.0996,4,3,42309,73050,3,45458,9A8RA/P
9A/DH-056,Croatia,DalmatinskaHrvatska (Dalmatian Croatia),Lisac,16.52192,43.62351,4,3,42309,73050,12,45354,9A6CW
9A/DH-058,Croatia,DalmatinskaHrvatska (Dalmatian Croatia),PrÄevice,16.72392,43.49987,4,3,42309,73050,4,44093,9A6CW
9A/DH-059,Croatia,DalmatinskaHrvatska (Dalmatian Croatia),VisoÄica,16.84823,43.52598,4,3,42309,73050,16,45528,9A8RA/P
9A/DH-060,Croatia,DalmatinskaHrvatska (Dalmatian Croatia),Runjevac,16.47003,43.67258,4,3,42309,73050,12,45242,9A6CW
9A/DH-061,Croatia,DalmatinskaHrvatska (Dalmatian Croatia),Crni vrh,16.16727,43.59375,4,3,42309,73050,17,45481,9A3GVD
9A/DH-062,Croatia,DalmatinskaHrvatska (Dalmatian Croatia),MeÄ‘ijak,16.14083,44.09112,4,3,42309,73050,6,45003,9A8RA/P
9A/DH-063,Croatia,DalmatinskaHrvatska (Dalmatian Croatia),Babina Gomila,17.53273,43.07617,4,3,42309,73050,1,43329,9A6CW/P
9A/DH-065,Croatia,DalmatinskaHrvatska (Dalmatian Croatia),PljeÅ¡ivica,16.17134,44.12987,4,3,42309,73050,2,44310,9A8RA/P
9A/DH-068,Croatia,DalmatinskaHrvatska (Dalmatian Croatia),Rota,17.36155,42.96367,4,3,42309,73050,12,45208,9A/S57AX/P
9A/DH-069,Croatia,DalmatinskaHrvatska (Dalmatian Croatia),StraÅ¾iÅ¡Ä‡e,18.25177,42.59735,4,3,42309,73050,2,45481,9A/G0KYS/P
9A/DH-070,Croatia,DalmatinskaHrvatska (Dalmatian Croatia),Crni Vrh,16.21481,43.80912,4,3,42309,73050,9,45325,9A8RA/P
9A/DH-071,Croatia,DalmatinskaHrvatska (Dalmatian Croatia),Vrenjak,16.6139,43.50371,4,3,42309,73050,37,45578,9A/S57TQ/P
9A/DH-072,Croatia,DalmatinskaHrvatska (Dalmatian Croatia),LabinÅ¡tica,16.21501,43.57812,4,3,42309,73050,20,45571,9A8RA/P
9A/DH-075,Croatia,DalmatinskaHrvatska (Dalmatian Croatia),Velika glavica,17.36228,43.24002,2,3,42309,73050,1,43365,9A6CW/P
9A/DH-076,Croatia,DalmatinskaHrvatska (Dalmatian Croatia),Kita,16.35484,43.649,2,3,42309,73050,5,44703,9A8RA/P
9A/DH-077,Croatia,DalmatinskaHrvatska (Dalmatian Croatia),JuriÅ¡inka,15.69971,44.11823,2,3,42309,73050,3,44435,9A/SQ9MDN/P
9A/DH-078,Croatia,DalmatinskaHrvatska (Dalmatian Croatia),TrapoÅ¡nik,16.658,43.61503,2,3,42309,73050,9,45656,9A6CW
9A/DH-081,Croatia,DalmatinskaHrvatska (Dalmatian Croatia),Crni krug,16.29008,43.58685,2,3,42309,73050,11,45249,9A8RA/P
9A/DH-082,Croatia,DalmatinskaHrvatska (Dalmatian Croatia),KoÅ¡tak,16.50886,43.58271,2,3,42309,73050,11,45221,9A6CW
9A/DH-083,Croatia,DalmatinskaHrvatska (Dalmatian Croatia),ÄŒaroviÄ‡,17.537,42.85789,2,3,42309,73050,1,43703,9A6ZE/P
9A/DH-084,Croatia,DalmatinskaHrvatska (Dalmatian Croatia),Gradina,17.94696,42.74274,2,3,42309,73050,1,44728,9A6ZE/P
9A/DH-086,Croatia,DalmatinskaHrvatska (Dalmatian Croatia),Sveta Nikola,16.5976,43.14448,2,3,42309,73050,11,45472,9A/SP9VET
9A/DH-087,Croatia,DalmatinskaHrvatska (Dalmatian Croatia),Viter,17.30001,42.98713,2,3,42309,73050,2,44802,9A/SQ9MDN/P
9A/DH-089,Croatia,DalmatinskaHrvatska (Dalmatian Croatia),Pometeno brdo,16.46387,43.63425,2,3,42309,73050,10,45552,9A/G4JXP/P
9A/DH-090,Croatia,DalmatinskaHrvatska (Dalmatian Croatia),Ä†uÄin,17.37296,42.92945,2,3,42309,73050,7,45154,9A/SQ9MDN/P
9A/DH-092,Croatia,DalmatinskaHrvatska (Dalmatian Croatia),Crni vrh,16.30821,43.64338,2,3,42309,73050,1,43276,9A6CW/P
9A/DH-094,Croatia,DalmatinskaHrvatska (Dalmatian Croatia),Hum,16.11359,43.03,2,3,42309,73050,24,45605,9A6CW
9A/DH-095,Croatia,DalmatinskaHrvatska (Dalmatian Croatia),Ilina glavica,15.79764,44.12858,2,3,42309,73050,1,43996,9A8RA/P
9A/DH-096,Croatia,DalmatinskaHrvatska (Dalmatian Croatia),Veliki Jelinak,16.16393,43.55335,2,3,42309,73050,9,45116,9A8RA/P
9A/DH-097,Croatia,DalmatinskaHrvatska (Dalmatian Croatia),Zahod,16.65376,43.45459,2,3,42309,73050,12,45135,9A/F5MDY/P
9A/DH-098,Croatia,DalmatinskaHrvatska (Dalmatian Croatia),Klupca,17.00839,42.94794,2,3,42309,73050,7,45177,9A/S55VN/P
9A/DH-099,Croatia,DalmatinskaHrvatska (Dalmatian Croatia),Daska,17.56305,42.96176,2,3,42309,73050,1,45168,9A6ZE/P
9A/DH-100,Croatia,DalmatinskaHrvatska (Dalmatian Croatia),Dubovo brdo,17.32543,42.97847,2,3,42309,73050,1,43713,9A6ZE/P
9A/DH-101,Croatia,DalmatinskaHrvatska (Dalmatian Croatia),Ilijin vrh,18.38597,42.49921,2,3,42309,73050,2,45491,9A/G0KYS/P
9A/DH-102,Croatia,DalmatinskaHrvatska (Dalmatian Croatia),Velika glava,16.0764,43.70647,2,3,42309,73050,6,44787,9A8RA/P
9A/DH-104,Croatia,DalmatinskaHrvatska (Dalmatian Croatia),Kunjev vrh,17.84047,42.82798,2,3,42309,73050,1,44007,9A6ZE/P
9A/DH-105,Croatia,DalmatinskaHrvatska (Dalmatian Croatia),Mali Hum,16.10386,43.05611,2,3,42309,73050,12,45452,9A6CW
9A/DH-106,Croatia,DalmatinskaHrvatska (Dalmatian Croatia),Veliki Grad,17.55442,42.73927,2,3,42309,73050,3,45076,9A4MX/P
9A/DH-107,Croatia,DalmatinskaHrvatska (Dalmatian Croatia),Kom,16.85917,42.93718,2,3,42309,73050,6,44796,9A/E77DX/P
9A/DH-108,Croatia,DalmatinskaHrvatska (Dalmatian Croatia),Orlice,16.02091,43.63767,2,3,42309,73050,8,44779,9A6CW
9A/DH-109,Croatia,DalmatinskaHrvatska (Dalmatian Croatia),Krtolin,15.99611,43.7434,2,3,42309,73050,6,45244,9A3GVD/P
9A/DH-110,Croatia,DalmatinskaHrvatska (Dalmatian Croatia),Mravnik,16.0957,43.66081,2,3,42309,73050,4,44527,9A6CW
9A/DH-112,Croatia,DalmatinskaHrvatska (Dalmatian Croatia),Ilijino Brdo,17.64181,42.84455,1,0,42309,73050,1,44061,9A6ZE/P
9A/DH-114,Croatia,DalmatinskaHrvatska (Dalmatian Croatia),Crni vrh,16.1238,43.66007,1,0,42309,73050,2,44591,9A3GVD/P
9A/DH-115,Croatia,DalmatinskaHrvatska (Dalmatian Croatia),Velji vrh,17.23758,43.00731,1,0,42309,73050,1,44005,9A6ZE/P
9A/DH-119,Croatia,DalmatinskaHrvatska (Dalmatian Croatia),TriÅ¡tenica,16.22131,43.65237,1,0,42309,73050,1,44310,9A6CW
9A/DH-120,Croatia,DalmatinskaHrvatska (Dalmatian Croatia),VlaÅ¡ka,16.20811,43.52761,1,0,42309,73050,12,45534,OE1KEB
9A/DH-121,Croatia,DalmatinskaHrvatska (Dalmatian Croatia),BraÄevo brdo,17.99223,42.71054,1,0,42309,73050,2,44725,9A6ZE/P
9A/DH-122,Croatia,DalmatinskaHrvatska (Dalmatian Croatia),Cologuz,15.79584,43.9736,1,0,42309,73050,3,45477,9A3GVD/P
9A/DH-124,Croatia,DalmatinskaHrvatska (Dalmatian Croatia),PleÅ¡evo brdo,16.8507,42.7448,1,0,42309,73050,4,44998,9A/S50VD
9A/DH-125,Croatia,DalmatinskaHrvatska (Dalmatian Croatia),Ulenje,17.47845,42.89405,1,0,42309,73050,9,45564,9A/S56LXN/P
9A/DH-127,Croatia,DalmatinskaHrvatska (Dalmatian Croatia),SrÄ‘,18.11141,42.64935,1,0,42309,73050,13,45572,9A/DJ2TG
9A/DH-129,Croatia,DalmatinskaHrvatska (Dalmatian Croatia),Å ibenik,17.5063,42.97858,1,0,42309,73050,1,45169,9A6ZE/P
9A/DH-130,Croatia,DalmatinskaHrvatska (Dalmatian Croatia),Planjak,17.41945,42.76882,1,0,42309,73050,4,45075,9A4MX/P
9A/DH-131,Croatia,DalmatinskaHrvatska (Dalmatian Croatia),Hum,16.69343,42.94683,1,0,42309,73050,11,45576,9A/S57TQ/P
9A/DH-132,Croatia,DalmatinskaHrvatska (Dalmatian Croatia),Golovrh,17.5797,43.10951,1,0,42309,73050,1,45166,9A6ZE/P
9A/DH-134,Croatia,DalmatinskaHrvatska (Dalmatian Croatia),Planjak,17.71244,42.7059,1,0,42309,73050,4,45549,9A/G4JXP/P
9A/DH-138,Croatia,DalmatinskaHrvatska (Dalmatian Croatia),Vela StraÅ¾a,15.05903,43.9903,1,0,42309,73050,6,45498,9A/S55G/P
9A/DH-140,Croatia,DalmatinskaHrvatska (Dalmatian Croatia),Bijed,17.44942,42.76465,1,0,42309,73050,2,45079,9A4MX/P
9A/DH-141,Croatia,DalmatinskaHrvatska (Dalmatian Croatia),Krstina,17.40229,43.0604,1,0,42309,73050,1,45175,9A6ZE/P
9A/DH-142,Croatia,DalmatinskaHrvatska (Dalmatian Croatia),Velika gradina,15.70772,43.90581,1,0,42309,73050,4,45474,9A3GVD/P
9A/DH-143,Croatia,DalmatinskaHrvatska (Dalmatian Croatia),Pjenak,17.76428,42.81084,1,0,42309,73050,1,43704,9A6ZE/P
9A/DH-144,Croatia,DalmatinskaHrvatska (Dalmatian Croatia),Umac,17.55082,43.04431,1,0,42309,73050,1,45170,9A6ZE/P
9A/DH-145,Croatia,DalmatinskaHrvatska (Dalmatian Croatia),Spivnik,16.83937,42.9506,1,0,42309,73050,6,44796,9A/E77DX/P
9A/DH-146,Croatia,DalmatinskaHrvatska (Dalmatian Croatia),Kulina,17.68633,42.89656,1,0,42309,73050,1,44069,9A6ZE/P
9A/DH-147,Croatia,DalmatinskaHrvatska (Dalmatian Croatia),Å tandarac,15.60973,43.89836,1,0,42309,73050,9,44822,9A3GVD/P
9A/DH-148,Croatia,DalmatinskaHrvatska (Dalmatian Croatia),Kosa,15.74856,43.02616,1,0,42309,73050,1,44054,9A6CW
9A/DH-149,Croatia,DalmatinskaHrvatska (Dalmatian Croatia),Velo,16.14298,43.49399,1,0,42309,73050,3,44369,9A6CW
9A/DH-150,Croatia,DalmatinskaHrvatska (Dalmatian Croatia),Å Ä‡ah,15.14402,44.08533,1,0,42309,73050,7,44519,9A6ZE/P
9A/DH-152,Croatia,DalmatinskaHrvatska (Dalmatian Croatia),Polakovica,17.70432,42.81686,1,0,42309,73050,2,45173,9A6ZE/P
9A/DH-153,Croatia,DalmatinskaHrvatska (Dalmatian Croatia),Gradina,15.72928,43.83025,1,0,42309,73050,6,45185,9A/DF1AI/P
9A/DH-154,Croatia,DalmatinskaHrvatska (Dalmatian Croatia),Veliki Bokolj,15.30549,43.98265,1,0,42309,73050,18,45502,9A/OK2OP/P
9A/DH-155,Croatia,DalmatinskaHrvatska (Dalmatian Croatia),Lergova gradina,15.44183,44.24969,1,0,42309,73050,13,45513,9A/OM1AEG/P
9A/DH-156,Croatia,DalmatinskaHrvatska (Dalmatian Croatia),Sveti Bartolomeo,17.69602,42.84274,1,0,42309,73050,4,45077,9A/S56LXN/P
9A/DH-157,Croatia,DalmatinskaHrvatska (Dalmatian Croatia),SuÅ¡ac,16.5131,42.76841,1,0,42309,73050,2,43672,9A3ST/P
9A/DH-158,Croatia,DalmatinskaHrvatska (Dalmatian Croatia),StraÅ¾benica,16.01542,42.96257,1,0,42309,73050,2,45163,9A/S55VN/P
9A/DH-159,Croatia,DalmatinskaHrvatska (Dalmatian Croatia),Metlina,15.28945,43.82951,1,0,42309,73050,2,45077,9A/DL3MP
9A/DH-160,Croatia,DalmatinskaHrvatska (Dalmatian Croatia),Vela straÅ¾a,16.35195,43.3577,1,0,42309,73050,4,45366,9A/S56VHA/P
9A/DH-161,Croatia,DalmatinskaHrvatska (Dalmatian Croatia),Velji vrh,17.85612,42.74002,1,0,42309,73050,1,43756,9A3DZK
9A/DH-163,Croatia,DalmatinskaHrvatska (Dalmatian Croatia),Veli vinogradi,16.30637,43.49581,1,0,42309,73050,10,45142,9A/DF1IW/P
9A/DH-164,Croatia,DalmatinskaHrvatska (Dalmatian Croatia),Platidog,16.83294,42.7628,1,0,42309,73050,2,44994,9A/S50VD
9A/DH-168,Croatia,DalmatinskaHrvatska (Dalmatian Croatia),Velika Petka,18.07257,42.64991,1,0,42309,73050,5,45572,9A/DJ2TG
9A/DH-170,Croatia,DalmatinskaHrvatska (Dalmatian Croatia),Buhaj,16.15776,43.44804,1,0,42309,73050,3,44009,9A/S56LXN/P
9A/DH-172,Croatia,DalmatinskaHrvatska (Dalmatian Croatia),Klepac o. Zlarin,15.84102,43.68795,1,0,42309,73050,4,45088,9A3GVD/P
9A/DH-173,Croatia,DalmatinskaHrvatska (Dalmatian Croatia),Velika Bratota,17.71694,42.91695,2,3,43617,73050,1,44069,9A6ZE/P
9A/GH-001,Croatia,GorskaHrvatska (Mountainous Croatia),Vaganski Vrh,15.50454,44.36737,10,3,42309,73050,6,45535,9A5YY
9A/GH-002,Croatia,GorskaHrvatska (Mountainous Croatia),Sveto Brdo,15.56965,44.3286,10,3,42309,73050,3,44499,9A6CW
9A/GH-003,Croatia,GorskaHrvatska (Mountainous Croatia),Ozeblin,15.87591,44.57886,10,3,42309,73050,2,44398,9A5YY
9A/GH-004,Croatia,GorskaHrvatska (Mountainous Croatia),Gola PljeÅ¡ivica,15.74849,44.79378,10,3,42309,73050,2,44398,9A5YY
9A/GH-005,Croatia,GorskaHrvatska (Mountainous Croatia),Badanj,15.46804,44.38963,10,3,42309,73050,1,42909,9A/DL4MHA/P
9A/GH-007,Croatia,GorskaHrvatska (Mountainous Croatia),Debelo brdo,15.44548,44.37556,10,3,42309,73050,2,45410,9A/SP9LPK/P
9A/GH-010,Croatia,GorskaHrvatska (Mountainous Croatia),Kremen,15.88636,44.46417,10,3,42309,73050,2,44759,9A5YY
9A/GH-011,Croatia,GorskaHrvatska (Mountainous Croatia),VisoÄica,15.37136,44.42968,10,3,42309,73050,2,44077,9A6ZE/P
9A/GH-015,Croatia,GorskaHrvatska (Mountainous Croatia),Kula,14.9612,45.27358,10,3,42309,73050,7,45416,9A5YY
9A/GH-016,Croatia,GorskaHrvatska (Mountainous Croatia),Veliki Risnjak,14.6212,45.43153,10,3,42309,73050,12,45545,9A/S58MT/P
9A/GH-020,Croatia,GorskaHrvatska (Mountainous Croatia),SnjeÅ¾nik,14.58405,45.44061,10,3,42309,73050,25,45605,9A/WV0X
9A/GH-021,Croatia,GorskaHrvatska (Mountainous Croatia),Gornji Medvejci,14.53003,45.48683,10,3,42309,73050,5,45088,9A/IV3NGF
9A/GH-022,Croatia,GorskaHrvatska (Mountainous Croatia),Ceclje,14.51168,45.49966,10,3,42309,73050,5,45287,9A/IV3NGF
9A/GH-024,Croatia,GorskaHrvatska (Mountainous Croatia),Bijeli vrh,16.13905,44.23986,10,3,42309,73050,2,44079,9A8RA/P
9A/GH-025,Croatia,GorskaHrvatska (Mountainous Croatia),ViÅ¡evica,14.80086,45.25494,10,3,42309,73050,10,45608,9A/WV0X
9A/GH-026,Croatia,GorskaHrvatska (Mountainous Croatia),TruÅ¡eljev vrh,15.33204,44.43801,10,3,42309,73050,1,45116,9A6ZE/P
9A/GH-029,Croatia,GorskaHrvatska (Mountainous Croatia),Veliki Crnopac,15.83651,44.25204,10,3,42309,73050,7,45210,9A/SP9WLG/P
9A/GH-030,Croatia,GorskaHrvatska (Mountainous Croatia),Orozovac,16.02089,44.34836,10,3,42309,73050,1,44696,9A6ZE/P
9A/GH-031,Croatia,GorskaHrvatska (Mountainous Croatia),Vrh KonjevaÄe,15.20591,44.49066,10,3,42309,73050,1,43746,9A6ZE/P
9A/GH-032,Croatia,GorskaHrvatska (Mountainous Croatia),ObruÄ,14.46581,45.45931,10,3,42309,73050,8,45115,9A3R/P
9A/GH-033,Croatia,GorskaHrvatska (Mountainous Croatia),Velika Javornica,14.99095,45.20533,10,3,42309,73050,4,45206,9A3R/P
9A/GH-034,Croatia,GorskaHrvatska (Mountainous Croatia),Plana,14.91776,45.31961,10,3,42309,73050,6,44863,9A6ZE/P
9A/GH-036,Croatia,GorskaHrvatska (Mountainous Croatia),Crni vrh,14.5264,45.4479,10,3,42309,73050,7,45229,9A/F4JYM/P
9A/GH-037,Croatia,GorskaHrvatska (Mountainous Croatia),Jesenovica,14.54502,45.43257,10,3,42309,73050,21,45607,9A/WV0X
9A/GH-039,Croatia,GorskaHrvatska (Mountainous Croatia),Lisac,15.99463,44.33391,10,3,42309,73050,1,44696,9A6ZE/P
9A/GH-040,Croatia,GorskaHrvatska (Mountainous Croatia),Bijela kosa,14.92643,45.29882,10,3,42309,73050,10,45288,9A6ZE/P
9A/GH-042,Croatia,GorskaHrvatska (Mountainous Croatia),Gradina,14.85815,45.25852,10,3,42309,73050,1,44471,9A3R/P
9A/GH-044,Croatia,GorskaHrvatska (Mountainous Croatia),Javornik,15.92865,44.48767,8,3,42309,73050,2,45556,9A/DF1AI/P
9A/GH-045,Croatia,GorskaHrvatska (Mountainous Croatia),Metla,15.21331,44.53924,8,3,42309,73050,7,45556,9A/DF1AI/P
9A/GH-046,Croatia,GorskaHrvatska (Mountainous Croatia),Veliki Sadikovac,15.18424,44.50616,8,3,42309,73050,8,45188,9A/SP9WLG/P
9A/GH-047,Croatia,GorskaHrvatska (Mountainous Croatia),Mirkovica,15.02852,45.30574,8,3,42309,73050,2,44493,9A6ZE/P
9A/GH-050,Croatia,GorskaHrvatska (Mountainous Croatia),Maj vrh,14.87244,45.28809,8,3,42309,73050,5,45039,9A/S57MS/P
9A/GH-052,Croatia,GorskaHrvatska (Mountainous Croatia),Mrsinj,15.66906,44.74982,8,3,42309,73050,1,45201,9A5YY
9A/GH-056,Croatia,GorskaHrvatska (Mountainous Croatia),Smolnik,15.07,45.2967,8,3,42309,73050,2,44493,9A6ZE/P
9A/GH-060,Croatia,GorskaHrvatska (Mountainous Croatia),Ä†elevac,15.78517,44.25993,8,3,42309,73050,4,45210,9A/SP9WLG/P
9A/GH-061,Croatia,GorskaHrvatska (Mountainous Croatia),Crna gora,14.57834,45.59103,8,3,42309,73050,4,45095,9A/IV3NGF
9A/GH-063,Croatia,GorskaHrvatska (Mountainous Croatia),Oklinak,15.96164,44.23936,8,3,42309,73050,2,44254,9A8RA/P
9A/GH-065,Croatia,GorskaHrvatska (Mountainous Croatia),Klek,15.14548,45.26044,8,3,42309,73050,8,44863,9A8RA/P
9A/GH-067,Croatia,GorskaHrvatska (Mountainous Croatia),CrnolaÅ¡ki BerinÅ¡Äek,14.56316,45.58427,8,3,42309,73050,4,45095,9A/IV3NGF
9A/GH-072,Croatia,GorskaHrvatska (Mountainous Croatia),Debela kosa,14.98894,45.36314,8,3,42309,73050,7,44702,9A3R/P
9A/GH-073,Croatia,GorskaHrvatska (Mountainous Croatia),Zagradski vrh,14.78026,45.22784,8,3,42309,73050,11,45608,9A/WV0X
9A/GH-074,Croatia,GorskaHrvatska (Mountainous Croatia),Prezidanski BerinÅ¡Äek,14.54154,45.6115,8,3,42309,73050,4,45109,9A/IV3NGF
9A/GH-078,Croatia,GorskaHrvatska (Mountainous Croatia),Veliki Drgomalj,14.79055,45.43802,8,3,42309,73050,9,45548,9A/S58MT/P
9A/GH-080,Croatia,GorskaHrvatska (Mountainous Croatia),Debeli vrh,14.80504,45.35575,8,3,42309,73050,4,44478,9A6ZE/P
9A/GH-090,Croatia,GorskaHrvatska (Mountainous Croatia),Kanculova glava,14.73976,45.24621,8,3,42309,73050,2,43835,9A6ZE/P
9A/GH-092,Croatia,GorskaHrvatska (Mountainous Croatia),Prlinka,15.55172,44.90976,8,3,42309,73050,1,44350,9A5YY
9A/GH-094,Croatia,GorskaHrvatska (Mountainous Croatia),Petehovac,14.91765,45.34961,8,3,42309,73050,6,44863,9A6ZE/P
9A/GH-095,Croatia,GorskaHrvatska (Mountainous Croatia),MarkoviÄ‡ rudine,15.28842,44.78812,8,3,42309,73050,1,44373,9A6ZE/P
9A/GH-096,Croatia,GorskaHrvatska (Mountainous Croatia),JelenÄiÄ‡,14.6621,45.31364,8,3,42309,73050,9,45596,9A/HF9HF/P
9A/GH-097,Croatia,GorskaHrvatska (Mountainous Croatia),Crni vrh,15.14304,45.15592,8,3,42309,73050,1,44499,9A6ZE/P
9A/GH-098,Croatia,GorskaHrvatska (Mountainous Croatia),KomesaÄ,15.15832,45.14766,8,3,42309,73050,1,44499,9A6ZE/P
9A/GH-099,Croatia,GorskaHrvatska (Mountainous Croatia),KaliÄ‡,14.65412,45.36525,6,3,42309,73050,7,45148,9A3R/P
9A/GH-109,Croatia,GorskaHrvatska (Mountainous Croatia),Debeli Vrh,15.05305,45.20855,6,3,42309,73050,1,45200,9A6ZE/P
9A/GH-111,Croatia,GorskaHrvatska (Mountainous Croatia),Skradski vrh,14.92136,45.42021,6,3,42309,73050,11,45324,9A/IV3NGF
9A/GH-112,Croatia,GorskaHrvatska (Mountainous Croatia),Veliki Tomac,14.73285,45.41366,6,3,42309,73050,3,44345,9A6ZE/P
9A/GH-116,Croatia,GorskaHrvatska (Mountainous Croatia),Javorova kosa,14.9517,45.3867,6,3,42309,73050,16,45473,9A5YY
9A/GH-118,Croatia,GorskaHrvatska (Mountainous Croatia),Å piÄasti Vrh,14.72339,45.50444,6,3,42309,73050,3,45347,9A/IV3NGF
9A/GH-121,Croatia,GorskaHrvatska (Mountainous Croatia),KupjaÄki vrh,14.86643,45.41175,6,3,42309,73050,3,44912,9A6ZE/P
9A/GH-122,Croatia,GorskaHrvatska (Mountainous Croatia),Lisac,16.04357,44.51106,6,3,42309,73050,1,45123,9A5YY
9A/GH-123,Croatia,GorskaHrvatska (Mountainous Croatia),Veliki Kozarac,15.03774,45.35402,6,3,42309,73050,7,45053,9A6ZE/P
9A/GH-126,Croatia,GorskaHrvatska (Mountainous Croatia),Debela lipa,14.74675,45.37153,6,3,42309,73050,3,44478,9A6ZE/P
9A/GH-129,Croatia,GorskaHrvatska (Mountainous Croatia),OpÄuv,15.88587,44.40913,6,3,42309,73050,1,44702,9A6ZE/P
9A/GH-132,Croatia,GorskaHrvatska (Mountainous Croatia),OÅ¡tri vrh,15.0074,45.39387,6,3,42309,73050,6,45053,9A6ZE/P
9A/GH-137,Croatia,GorskaHrvatska (Mountainous Croatia),Doren vrh,14.76498,45.41765,6,3,42309,73050,3,44345,9A6ZE/P
9A/GH-139,Croatia,GorskaHrvatska (Mountainous Croatia),Trovrh,15.5838,44.95248,6,3,42309,73050,1,44350,9A5YY
9A/GH-141,Croatia,GorskaHrvatska (Mountainous Croatia),Grmada,14.35671,45.47309,6,3,42309,73050,11,45675,9A3R/P
9A/GH-142,Croatia,GorskaHrvatska (Mountainous Croatia),Planina,15.0552,45.02785,6,3,42309,73050,1,44114,9A6ZE/P
9A/GH-145,Croatia,GorskaHrvatska (Mountainous Croatia),Samar,15.05242,45.01824,6,3,42309,73050,1,44114,9A6ZE/P
9A/GH-152,Croatia,GorskaHrvatska (Mountainous Croatia),Jasenov vrh,15.16679,45.19291,6,3,42309,73050,1,45207,9A6ZE/P
9A/GH-153,Croatia,GorskaHrvatska (Mountainous Croatia),Lovnik,15.09192,45.39881,6,3,42309,73050,6,44185,9A6ZE/P
9A/GH-154,Croatia,GorskaHrvatska (Mountainous Croatia),Debelo brdo,16.04649,44.24162,6,3,42309,73050,2,44135,9A8RA/P
9A/GH-156,Croatia,GorskaHrvatska (Mountainous Croatia),MedveÄ‘ak oÅ¡tri,15.6538,44.88769,4,3,42309,73050,2,45179,9A5YY
9A/GH-157,Croatia,GorskaHrvatska (Mountainous Croatia),Okrugljak,15.02995,45.46054,4,3,42309,73050,6,44590,9A6ZE/P
9A/GH-159,Croatia,GorskaHrvatska (Mountainous Croatia),Uz Lazine - LitoriÄ‡,15.065,45.4542,4,3,42309,73050,2,43876,9A6ZE/P
9A/GH-160,Croatia,GorskaHrvatska (Mountainous Croatia),Vijojla,16.05108,44.2258,4,3,42309,73050,2,44135,9A8RA/P
9A/GH-161,Croatia,GorskaHrvatska (Mountainous Croatia),Kopanj,15.14269,44.83844,4,3,42309,73050,1,44381,9A6ZE/P
9A/GH-162,Croatia,GorskaHrvatska (Mountainous Croatia),Risovac,15.31392,44.66995,4,3,42309,73050,1,44604,9A6ZE/P
9A/GH-163,Croatia,GorskaHrvatska (Mountainous Croatia),Zir,15.61437,44.43018,4,3,42309,73050,5,45497,9A/OK2OP/P
9A/GH-164,Croatia,GorskaHrvatska (Mountainous Croatia),Soviljica,15.16433,45.24722,4,3,42309,73050,6,44863,9A8RA/P
9A/GH-165,Croatia,GorskaHrvatska (Mountainous Croatia),Velika KamiÄina,14.55531,45.37872,4,3,42309,73050,14,45144,9A/IV3NGF
9A/GH-166,Croatia,GorskaHrvatska (Mountainous Croatia),MedvidovaÄa,15.7158,44.3708,4,3,42309,73050,2,45479,9A8RA/P
9A/GH-171,Croatia,GorskaHrvatska (Mountainous Croatia),Mala Gospa,14.67192,45.53156,4,3,42309,73050,12,45470,9A2GA/P
9A/GH-172,Croatia,GorskaHrvatska (Mountainous Croatia),Deriguz,15.22556,45.13752,4,3,42309,73050,1,44612,9A6ZE/P
9A/GH-173,Croatia,GorskaHrvatska (Mountainous Croatia),MetlaÄa,15.30658,44.6572,4,3,42309,73050,1,44604,9A6ZE/P
9A/GH-174,Croatia,GorskaHrvatska (Mountainous Croatia),OÅ¡tra,15.32644,44.53029,4,3,42309,73050,3,44680,9A6ZE/P
9A/GH-176,Croatia,GorskaHrvatska (Mountainous Croatia),StraÅ¾benica,15.02115,45.44114,4,3,42309,73050,3,44590,9A6ZE/P
9A/GH-178,Croatia,GorskaHrvatska (Mountainous Croatia),Å utiÄ‡a vrh,15.37269,44.63587,4,3,42309,73050,1,44604,9A6ZE/P
9A/GH-182,Croatia,GorskaHrvatska (Mountainous Croatia),KrÄmar,15.29309,44.57071,4,3,42309,73050,1,44496,9A/DJ2TG/P
9A/GH-186,Croatia,GorskaHrvatska (Mountainous Croatia),GrabovaÄa,15.35193,44.64296,4,3,42309,73050,2,45116,9A3BKF/P
9A/GH-190,Croatia,GorskaHrvatska (Mountainous Croatia),Veliki vrh,15.20094,45.3609,4,3,42309,73050,1,42991,9A/S56LXN/P
9A/GH-193,Croatia,GorskaHrvatska (Mountainous Croatia),LeveÅ¡ni vrh,14.93136,45.51627,4,3,42309,73050,4,45324,9A/IV3NGF
9A/GH-195,Croatia,GorskaHrvatska (Mountainous Croatia),Primorac,14.77372,45.49644,4,3,42309,73050,2,42984,9A/S56LXN/P
9A/GH-196,Croatia,GorskaHrvatska (Mountainous Croatia),Prozorina,15.26222,44.845,2,3,42309,73050,4,44010,9A5YY
9A/GH-198,Croatia,GorskaHrvatska (Mountainous Croatia),Vitkovac,15.235,45.3358,2,3,42309,73050,1,42991,9A/S56LXN/P
9A/GH-199,Croatia,GorskaHrvatska (Mountainous Croatia),Ostrunov vrh,15.60665,45.01235,2,3,42309,73050,1,45074,9A5YY
9A/GH-200,Croatia,GorskaHrvatska (Mountainous Croatia),Veliki Trtor,15.2168,45.31393,2,3,42309,73050,1,43212,9A/S56LXN/P
9A/GH-201,Croatia,GorskaHrvatska (Mountainous Croatia),Velika StraÅ¾benica,15.26293,45.18113,2,3,42309,73050,1,44612,9A6ZE/P
9A/GH-204,Croatia,GorskaHrvatska (Mountainous Croatia),Cager,15.68822,45.05109,2,3,42309,73050,1,45074,9A5YY
9A/GH-205,Croatia,GorskaHrvatska (Mountainous Croatia),Velika Melnica,15.57287,45.09715,2,3,42309,73050,1,44030,9A6ZE/P
9A/GH-208,Croatia,GorskaHrvatska (Mountainous Croatia),TurniÄ‡,14.46589,45.36477,1,0,42309,73050,8,45470,9A2GA/P
9A/GH-209,Croatia,GorskaHrvatska (Mountainous Croatia),Veliki DruÅ¾ac,15.26319,45.41581,1,0,42309,73050,6,44154,9A6ZE/P
9A/GH-210,Croatia,GorskaHrvatska (Mountainous Croatia),Privis,15.3144,45.38713,1,0,42309,73050,4,44154,9A6ZE/P
9A/GH-211,Croatia,GorskaHrvatska (Mountainous Croatia),Umol,15.29936,45.36839,1,0,42309,73050,6,44154,9A6ZE/P
9A/GH-212,Croatia,GorskaHrvatska (Mountainous Croatia),Velika Lisac,15.55357,45.20986,1,0,42309,73050,1,44030,9A6ZE/P
9A/IH-001,Croatia,IstocnaHrvatska (East Croatia),Psunj,17.33212,45.38596,6,3,42309,73050,5,45452,9A8RA/P
9A/IH-002,Croatia,IstocnaHrvatska (East Croatia),Papuk,17.60338,45.52237,6,3,42309,73050,2,42329,9A/HA3HK/P
9A/IH-004,Croatia,IstocnaHrvatska (East Croatia),Crni vrh,17.43181,45.60266,4,3,42309,73050,2,44457,9A6ZE/P
9A/IH-007,Croatia,IstocnaHrvatska (East Croatia),Kapovac,17.8467,45.4833,4,3,42309,73050,3,43243,9A9EE/P
9A/IH-008,Croatia,IstocnaHrvatska (East Croatia),Kestenova poljana,17.45341,45.57932,4,3,42309,73050,1,44457,9A6ZE/P
9A/IH-009,Croatia,IstocnaHrvatska (East Croatia),Kapavac,17.5208,45.3058,2,3,42309,73050,1,44107,9A5YY
9A/IH-010,Croatia,IstocnaHrvatska (East Croatia),Maksimov Hrast,17.56673,45.28195,2,3,42309,73050,1,43251,9A9EE/P
9A/IH-011,Croatia,IstocnaHrvatska (East Croatia),Cinkovac,17.91492,45.2892,1,0,42309,73050,1,43247,9A9EE/P
9A/IH-012,Croatia,IstocnaHrvatska (East Croatia),Kasonjski vrh,17.75564,45.18965,1,0,42309,73050,1,45676,9A1MC
9A/PH-001,Croatia,PrimorskaHrvatska (Coastal Croatia),Mali Rajinac,15.01301,44.7945,10,3,42309,73050,11,45529,9A/YO5MCM/P
9A/PH-002,Croatia,PrimorskaHrvatska (Coastal Croatia),Veliki ZaviÅ¾an,14.97333,44.80222,10,3,42309,73050,14,45529,9A/YO5MCM/P
9A/PH-003,Croatia,PrimorskaHrvatska (Coastal Croatia),Goli vrh,14.98884,44.74554,10,3,42309,73050,2,45480,9A6ZE/P
9A/PH-004,Croatia,PrimorskaHrvatska (Coastal Croatia),Veliki Rajinac,15.02566,44.78262,10,3,42309,73050,5,45231,9A/F4JYM/P
9A/PH-005,Croatia,PrimorskaHrvatska (Coastal Croatia),Hajducki Kukovi,15.02165,44.76401,10,3,42309,73050,2,45479,9A6ZE/P
9A/PH-006,Croatia,PrimorskaHrvatska (Coastal Croatia),Veliki Kozjak,15.03541,44.73304,10,3,42309,73050,4,45480,9A6ZE/P
9A/PH-007,Croatia,PrimorskaHrvatska (Coastal Croatia),Å atorina,15.04848,44.64766,10,3,42309,73050,4,44388,9A6ZE/P
9A/PH-008,Croatia,PrimorskaHrvatska (Coastal Croatia),ZeÄjak,14.99278,44.70278,10,3,42309,73050,5,44023,9A6ZE/P
9A/PH-009,Croatia,PrimorskaHrvatska (Coastal Croatia),Goljak,15.01316,44.72425,10,3,42309,73050,5,44023,9A6ZE/P
9A/PH-010,Croatia,PrimorskaHrvatska (Coastal Croatia),SiljevaÄa,15.24435,44.46683,10,3,42309,73050,1,45115,9A6ZE/P
9A/PH-011,Croatia,PrimorskaHrvatska (Coastal Croatia),Veliki Stolac,15.25528,44.45063,10,3,42309,73050,1,45115,9A6ZE/P
9A/PH-012,Croatia,PrimorskaHrvatska (Coastal Croatia),Vojak,14.20199,45.28495,10,3,42309,73050,91,45606,9A/WV0X
9A/PH-015,Croatia,PrimorskaHrvatska (Coastal Croatia),Kuk od Karline plane,15.18441,44.53967,10,3,42309,73050,6,45188,9A/SP9WLG/P
9A/PH-016,Croatia,PrimorskaHrvatska (Coastal Croatia),Budakovo Brdo,15.07388,44.58261,10,3,42309,73050,4,45595,9A/SP9WLG/P
9A/PH-017,Croatia,PrimorskaHrvatska (Coastal Croatia),BaÄiÄ‡ kuk,15.09611,44.57861,8,3,42309,73050,4,45595,9A/SP9WLG/P
9A/PH-018,Croatia,PrimorskaHrvatska (Coastal Croatia),Zapadak,14.91788,45.14692,8,3,42309,73050,2,44493,9A3R/P
9A/PH-019,Croatia,PrimorskaHrvatska (Coastal Croatia),Veliki Planik,14.19058,45.36185,8,3,42309,73050,7,44563,9A3R/P
9A/PH-020,Croatia,PrimorskaHrvatska (Coastal Croatia),Gomila,14.21134,45.39751,8,3,42309,73050,10,45633,9A3R/P
9A/PH-021,Croatia,PrimorskaHrvatska (Coastal Croatia),Veliki vrh,14.99866,44.854,8,3,42309,73050,4,44443,9A6ZE/P
9A/PH-022,Croatia,PrimorskaHrvatska (Coastal Croatia),Crni vrh,15.21281,44.52578,8,3,42309,73050,7,45551,9A/DF1AI/P
9A/PH-023,Croatia,PrimorskaHrvatska (Coastal Croatia),Bilo,14.93256,45.10903,8,3,42309,73050,2,44493,9A3R/P
9A/PH-024,Croatia,PrimorskaHrvatska (Coastal Croatia),Crni vrh,14.9822,45.05019,8,3,42309,73050,4,45183,9A/SQ9PPW/P
9A/PH-025,Croatia,PrimorskaHrvatska (Coastal Croatia),TuhobiÄ‡,14.64172,45.33427,8,3,42309,73050,14,45596,9A/HF9HF/P
9A/PH-026,Croatia,PrimorskaHrvatska (Coastal Croatia),Orljak,14.12673,45.41944,8,3,42309,73050,20,45668,9A3R/P
9A/PH-027,Croatia,PrimorskaHrvatska (Coastal Croatia),MiÅ¡kovo bilo,14.99153,45.10264,6,3,42309,73050,1,45042,9A/S57NJM/P
9A/PH-028,Croatia,PrimorskaHrvatska (Coastal Croatia),Mocvil,14.11196,45.44134,6,3,42309,73050,9,45612,9A3R/P
9A/PH-029,Croatia,PrimorskaHrvatska (Coastal Croatia),Å½bevnica,14.01384,45.45872,6,3,42309,73050,27,45661,9A3R/P
9A/PH-030,Croatia,PrimorskaHrvatska (Coastal Croatia),VrnÄev vrh,14.99495,45.0014,6,3,42309,73050,2,44877,9A3R/P
9A/PH-031,Croatia,PrimorskaHrvatska (Coastal Croatia),Siljevac,14.03609,45.47899,4,3,42309,73050,14,45628,9A/S57MS/P
9A/PH-032,Croatia,PrimorskaHrvatska (Coastal Croatia),Sisol,14.20103,45.17119,4,3,42309,73050,15,45430,9A/S51TX/P
9A/PH-033,Croatia,PrimorskaHrvatska (Coastal Croatia),Ljubelj,14.5989,45.31841,4,3,42309,73050,7,44241,9A6ZE/P
9A/PH-034,Croatia,PrimorskaHrvatska (Coastal Croatia),Gorice,14.34611,45.07804,2,3,42309,73050,6,45438,9A/DM1DF/P
9A/PH-035,Croatia,PrimorskaHrvatska (Coastal Croatia),Televrina,14.36176,44.6715,2,3,42309,73050,8,45342,9A/S56VHA/P
9A/PH-036,Croatia,PrimorskaHrvatska (Coastal Croatia),Obzova,14.68714,44.99438,2,3,42309,73050,21,45598,9A/S56VHA/P
9A/PH-037,Croatia,PrimorskaHrvatska (Coastal Croatia),Velo GraÄiÅ¡te,14.37819,45.01971,2,3,42309,73050,7,45437,9A/DM1DF/P
9A/PH-038,Croatia,PrimorskaHrvatska (Coastal Croatia),Goli,14.12299,45.01996,2,3,42309,73050,34,45598,9A/S57TQ/P
9A/PH-039,Croatia,PrimorskaHrvatska (Coastal Croatia),St. DraguÄ‡,14.01332,45.32486,2,3,42309,73050,13,45010,9A3R/P
9A/PH-040,Croatia,PrimorskaHrvatska (Coastal Croatia),Gradnji breg,14.0583,45.285,1,0,42309,73050,8,45619,9A2NB/P
9A/PH-041,Croatia,PrimorskaHrvatska (Coastal Croatia),Veliki Repavac,13.84623,45.41743,1,0,42309,73050,10,45650,9A2NB/P
9A/PH-042,Croatia,PrimorskaHrvatska (Coastal Croatia),Helm,14.34446,44.86622,1,0,42309,73050,8,45343,9A/S56VHA/P
9A/PH-043,Croatia,PrimorskaHrvatska (Coastal Croatia),PiloÅ¡Äak,13.90443,45.28687,1,0,42309,73050,24,45517,9A/OM1BD/P
9A/PH-044,Croatia,PrimorskaHrvatska (Coastal Croatia),Trike,14.76169,45.01175,1,0,42309,73050,8,45596,9A/S56VHA/P
9A/PH-045,Croatia,PrimorskaHrvatska (Coastal Croatia),Velanov breg,13.94455,45.22473,1,0,42309,73050,21,45570,9A4MX/P
9A/PH-046,Croatia,PrimorskaHrvatska (Coastal Croatia),Standar,14.16897,45.10789,1,0,42309,73050,18,45493,9A2NB/P
9A/PH-047,Croatia,PrimorskaHrvatska (Coastal Croatia),Zlostan,14.39946,44.88683,1,0,42309,73050,7,45178,9A2GA/P
9A/PH-048,Croatia,PrimorskaHrvatska (Coastal Croatia),Kamenjak,14.78928,44.77301,1,0,42309,73050,15,45557,9A/S55X/P
9A/PH-049,Croatia,PrimorskaHrvatska (Coastal Croatia),Solina,13.94161,45.36192,1,0,42309,73050,12,45577,9A2NB/P
9A/PH-050,Croatia,PrimorskaHrvatska (Coastal Croatia),Drenin,14.72789,45.17353,1,0,42309,73050,8,45185,9A/SQ9PPW/P
9A/PH-051,Croatia,PrimorskaHrvatska (Coastal Croatia),Kur,14.7926,44.92215,1,0,42309,73050,1,45434,9A/DM1DF/P
9A/PH-052,Croatia,PrimorskaHrvatska (Coastal Croatia),Sveti Vid,14.99485,44.47651,1,0,42309,73050,14,45438,9A/DD1LD/P
9A/PH-053,Croatia,PrimorskaHrvatska (Coastal Croatia),Veli vrh,13.89303,45.36177,1,0,42309,73050,13,45517,9A/OM1BD/P
9A/PH-054,Croatia,PrimorskaHrvatska (Coastal Croatia),Sveti Juraj,14.60574,45.11177,1,0,42309,73050,41,45516,9A/DL1GKC/P
9A/PH-055,Croatia,PrimorskaHrvatska (Coastal Croatia),Meja,13.92199,45.40416,1,0,42309,73050,8,45160,9A4MX/P
9A/PH-056,Croatia,PrimorskaHrvatska (Coastal Croatia),Miheli,14.12021,45.24435,1,0,42309,73050,13,45346,9A3R/P
9A/PH-057,Croatia,PrimorskaHrvatska (Coastal Croatia),Veli brig,15.07343,44.4481,1,0,42309,73050,17,45579,9A/S57TQ/P
9A/PH-058,Croatia,PrimorskaHrvatska (Coastal Croatia),GrgoÅ¡Äak,14.50867,44.50157,1,0,42309,73050,18,45581,9A/S57TQ/P
9A/PH-059,Croatia,PrimorskaHrvatska (Coastal Croatia),Standarac,14.76121,44.86752,1,0,42309,73050,2,45533,9A/OM1ST/P
9A/PH-060,Croatia,PrimorskaHrvatska (Coastal Croatia),Panos,15.03384,44.50145,1,0,42309,73050,8,45431,9A/DD1LD/P
9A/PH-061,Croatia,PrimorskaHrvatska (Coastal Croatia),KruÅ¡ija,14.50675,44.97541,1,0,42309,73050,1,44700,9A/S51TX/P
9A/ZH-001,Croatia,ZapadnaHrvatska (West Croatia),IvanÅ¡Äica,16.12718,46.18138,6,3,42309,73050,25,44875,9A/WV0X/P
9A/ZH-002,Croatia,ZapadnaHrvatska (West Croatia),Sljeme,15.94751,45.89926,6,3,42309,73050,55,45676,9A5YY
9A/ZH-003,Croatia,ZapadnaHrvatska (West Croatia),Karvanka,15.26598,45.71859,4,3,42309,73050,5,45332,9A/S57MS/P
9A/ZH-004,Croatia,ZapadnaHrvatska (West Croatia),JapetiÄ‡,15.60924,45.74901,4,3,42309,73050,36,45536,9A7AM/P
9A/ZH-005,Croatia,ZapadnaHrvatska (West Croatia),SuÅ¡ec,15.90864,46.1894,4,3,42309,73050,11,44998,9A/S57MS/P
9A/ZH-006,Croatia,ZapadnaHrvatska (West Croatia),ZeÄak,15.54823,45.75356,4,3,42309,73050,16,44962,9A6ZE/P
9A/ZH-007,Croatia,ZapadnaHrvatska (West Croatia),PleÅ¡ivica,15.66807,45.73719,4,3,42309,73050,36,45662,9A5YY
9A/ZH-008,Croatia,ZapadnaHrvatska (West Croatia),Rancerje,15.64141,45.75123,4,3,42309,73050,28,45652,9A/S57MS/P
9A/ZH-009,Croatia,ZapadnaHrvatska (West Croatia),NorÅ¡iÄ‡ka PleÅ¡ivica,15.56447,45.79804,4,3,42309,73050,30,45669,9A5YY
9A/ZH-010,Croatia,ZapadnaHrvatska (West Croatia),Maceljska gora,15.79782,46.26015,4,3,42370,73050,5,45006,9A/S57MS/P
9A/ZH-011,Croatia,ZapadnaHrvatska (West Croatia),Ravna Gora - Tri kralja,15.98387,46.27164,2,3,42309,73050,24,45452,9A2HW/P
9A/ZH-012,Croatia,ZapadnaHrvatska (West Croatia),Ravna gora,15.99997,46.28048,2,3,42309,73050,10,44997,9A6ZE/P
9A/ZH-013,Croatia,ZapadnaHrvatska (West Croatia),Ham,16.21426,46.19,2,3,42309,73050,7,45663,9A3ROK
9A/ZH-014,Croatia,ZapadnaHrvatska (West Croatia),Vranilac,16.4547,46.13129,2,3,42309,73050,14,45655,9A5YY
9A/ZH-015,Croatia,ZapadnaHrvatska (West Croatia),Pogani vrh,17.34314,45.59321,2,3,42309,73050,2,44457,9A6ZE/P
9A/ZH-016,Croatia,ZapadnaHrvatska (West Croatia),Piramida,16.29799,45.20378,2,3,42309,73050,1,42897,9A/S56LXN/P
9A/ZH-017,Croatia,ZapadnaHrvatska (West Croatia),Kapija brdo,16.23139,45.19014,2,3,42309,73050,1,42898,9A/S56LXN/P
9A/ZH-018,Croatia,ZapadnaHrvatska (West Croatia),Rudski Gobec,16.23458,46.17345,2,3,42309,73050,13,45652,9A5YY
9A/ZH-019,Croatia,ZapadnaHrvatska (West Croatia),Zlatnica brijeg,15.86685,45.86246,2,3,42309,73050,29,45658,9A5YY
9A/ZH-020,Croatia,ZapadnaHrvatska (West Croatia),Veliki Ljubenjak,16.28428,46.18069,2,3,42309,73050,8,44655,9A/S56LXN/P
9A/ZH-021,Croatia,ZapadnaHrvatska (West Croatia),Brezovica,15.83817,46.18583,2,3,42309,73050,21,45354,9A5YY
9A/ZH-022,Croatia,ZapadnaHrvatska (West Croatia),Gornji Pokojec,16.03638,46.16813,2,3,42309,73050,10,45633,9A5YY
9A/ZH-023,Croatia,ZapadnaHrvatska (West Croatia),Drenova,16.16039,45.9724,2,3,42309,73050,11,45361,9A5YY
9A/ZH-024,Croatia,ZapadnaHrvatska (West Croatia),Ravnica,15.7968,46.19316,2,3,42309,73050,18,45656,9A/HB9JOE/P
9A/ZH-025,Croatia,ZapadnaHrvatska (West Croatia),Ljubelj,16.43378,46.16636,2,3,42309,73050,8,45668,9A3ROK
9A/ZH-026,Croatia,ZapadnaHrvatska (West Croatia),Vodenica,15.40896,45.59222,2,3,42309,73050,9,45383,9A5YY
9A/ZH-028,Croatia,ZapadnaHrvatska (West Croatia),Kuna gora,15.73579,46.17826,2,3,42309,73050,18,45656,9A/HB9JOE/P
9A/ZH-029,Croatia,ZapadnaHrvatska (West Croatia),Kukelj,16.03343,46.2925,2,3,42309,73050,7,45614,9A5YY
9A/ZH-030,Croatia,ZapadnaHrvatska (West Croatia),Veliki stog,15.88511,46.26149,2,3,42309,73050,13,45290,9A/HB9JOE/P
9A/ZH-031,Croatia,ZapadnaHrvatska (West Croatia),Mali Petrovac,15.80879,45.31145,2,3,42309,73050,7,45442,9A5YY
9A/ZH-032,Croatia,ZapadnaHrvatska (West Croatia),Cesarsko brdo,15.73618,46.05891,2,3,42309,73050,19,45598,9A7AM/P
9A/ZH-033,Croatia,ZapadnaHrvatska (West Croatia),Å½olekov breg,15.68867,46.18338,1,0,42309,73050,14,45656,9A/HB9JOE/P
9A/ZH-034,Croatia,ZapadnaHrvatska (West Croatia),Jasenov brijeg,16.49987,46.15451,1,0,42309,73050,5,45576,9A2GA/P
9A/ZH-035,Croatia,ZapadnaHrvatska (West Croatia),Humka,16.75384,45.61412,1,0,42309,73050,3,44351,9A6ZE/P
9A/ZH-036,Croatia,ZapadnaHrvatska (West Croatia),Goljak,15.36305,45.51772,1,0,42309,73050,4,44092,9A6ZE/P
9A/ZH-037,Croatia,ZapadnaHrvatska (West Croatia),Babjak,16.04885,46.2981,1,0,42309,73050,8,45614,9A5YY
9A/ZH-038,Croatia,ZapadnaHrvatska (West Croatia),Å½elimor,15.98126,46.2163,1,0,42309,73050,4,44457,9A2GA/P
9A/ZH-039,Croatia,ZapadnaHrvatska (West Croatia),Gradina,15.44755,45.26566,1,0,42309,73050,1,42898,9A/S56LXN/P
9A/ZH-040,Croatia,ZapadnaHrvatska (West Croatia),RoÅ¡Äica,16.01672,46.24071,1,0,42309,73050,6,44282,9A2GA/P
9A/ZH-041,Croatia,ZapadnaHrvatska (West Croatia),Veli vrh,15.53851,45.32974,1,0,42309,73050,1,44030,9A6ZE/P
9A/ZH-042,Croatia,ZapadnaHrvatska (West Croatia),Å Äepanje,16.24367,46.13276,1,0,42309,73050,8,44655,9A/S56LXN/P
9A/ZH-043,Croatia,ZapadnaHrvatska (West Croatia),CepeliÅ¡,16.27113,45.3959,1,0,42309,73050,4,44351,9A6ZE/P
9A/ZH-044,Croatia,ZapadnaHrvatska (West Croatia),StrogaÄa,15.9876,46.11568,1,0,42309,73050,9,45557,9A5YY
9A/ZH-045,Croatia,ZapadnaHrvatska (West Croatia),VlajniÄ‡ brdo,15.78296,45.39032,1,0,42309,73050,4,45039,9A2GA/P
9A/ZH-046,Croatia,ZapadnaHrvatska (West Croatia),KuÄer,15.31389,45.34781,1,0,42309,73050,2,44154,9A6ZE/P
9A/ZH-047,Croatia,ZapadnaHrvatska (West Croatia),Bilo,15.65855,45.35063,1,0,42309,73050,2,44085,9A6ZE/P
9A/ZH-048,Croatia,ZapadnaHrvatska (West Croatia),MartinÅ¡Ä‡ak,15.57967,45.40757,1,0,42309,73050,12,45445,9A5YY
9A/ZH-049,Croatia,ZapadnaHrvatska (West Croatia),Velika Vinica,15.52526,45.44484,1,0,42309,73050,10,45179,9A5YY
9H/GO-001,Malta,Gozo,Taâ€™Dbiegi,14.213,36.0521,1,0,40269,73050,81,45628,9H4RH/P
9H/MA-001,Malta,Malta,Ta'Dmejrek,14.3835,35.8528,1,0,40269,73050,50,45601,9H/HB9JOE/P
9M2/KD-004,West Malaysia,Kedah,Bukit Palong,100.9221,5.6029,6,0,45292,73050,2,45648,9M2SFX
9M2/KL-002,West Malaysia,Kuala Lumpur,Bukit Dinding,101.7509,3.1901,1,0,45292,73050,3,45304,9W2SSO
9M2/PH-005,West Malaysia,Pahang,Gunung Brinchang,101.3831,4.5169,10,3,45292,73050,4,45298,9M2YUT
9M2/PH-016,West Malaysia,Pahang,Bukit Habu,101.4138,4.4398,8,3,45292,73050,5,45298,9W2RFG
9M2/PP-004,West Malaysia,Pulau Pinang,Bukit Mertajam,100.484,5.3674,2,0,45292,73050,2,45347,9M2SFX
9M2/PP-010,West Malaysia,Pulau Pinang,Bukit Batu Kawan,100.4187,5.272,1,0,45292,73050,2,45486,9M2SFX
9M6/KB-001,East Malaysia,Kota Belud,"Kinabalu, Lows Peak",116.5587,6.075,10,0,43678,73050,4,45079,9W6/JL1SDA
9V/SG-001,Singapore,Singapore,Bukit Timah,103.7764,1.3547,1,0,42217,73050,8,45488,9V1BV
A6/RK-001,United Arab Emirates,Ras Al Khaimah - Ø±Ø£Ø³ Ø§Ù„Ø®ÙŠÙ…Ø©,Jabal Raá¸©abah,56.1169,25.9261,10,3,44013,73050,1,45501,A65/VA6MPM
A6/RK-004,United Arab Emirates,Ras Al Khaimah - Ø±Ø£Ø³ Ø§Ù„Ø®ÙŠÙ…Ø©,A6/RK-004,56.1119,25.6658,10,3,44013,73050,1,45507,A65/VA6MPM
A6/SH-011,United Arab Emirates,Sharjah - Ø§Ù„Ø´Ø§Ø±Ù‚Ø©,Jabal al â€˜Uwayyin,56.3233,25.3606,2,0,44013,73050,7,45378,A65/OE5RTP/P
A6/SH-015,United Arab Emirates,Sharjah - Ø§Ù„Ø´Ø§Ø±Ù‚Ø©,Jabal Mulayá¸©ah,55.8369,25.1478,1,0,44013,73050,3,45500,A65BP/P
BV/CH-002,Taiwan,Chiayi,å¤§å¡”å±± (DÃ  TÇŽ ShÄn),120.8086,23.5361,8,3,43405,73050,1,45282,BX2AKP
BV/CH-005,Taiwan,Chiayi,å°ç¬ åŽŸå±± (XiÇŽo LÃ¬ YuÃ¡n shÄn),120.8231,23.5068,6,3,43405,73050,3,45282,BX2AKP
BV/CH-009,Taiwan,Chiayi,BV/CH-009,120.7193,23.4978,6,3,43405,73050,2,45621,BX8AAD
BV/CH-010,Taiwan,Chiayi,èŠ™è“‰å±± (FÃº RÃ³ng ShÄn),120.73,23.4806,6,3,43405,73050,1,45285,BX2AKP
BV/CH-011,Taiwan,Chiayi,é›™æž—å±± (ShuÄng LÃ­n SshÄn),120.7087,23.5105,6,3,43405,73050,1,45283,BX2AKP
BV/CH-015,Taiwan,Chiayi,éš™é ‚å±± (XÃ¬ DÇng ShÄn),120.6578,23.4369,4,3,43405,73050,1,45284,BX2AKP
BV/CH-017,Taiwan,Chiayi,äºŒå»¶å¹³å±± (Ãˆr YÃ¡n PÃ­ng ShÄn),120.6529,23.4257,4,3,43405,73050,4,45284,BX2AKP
BV/CH-024,Taiwan,Chiayi,å¤§å·ƒé ‚ (DÃ  LÃ³ng DÇng),120.6068,23.5534,4,3,43405,73050,1,44949,BX2AKO
BV/HL-001,Taiwan,Hualien,å¥‡èŠåŒ—å³° (QÃ­ LÃ¡i BÄ›i FÄ“ng ),121.335,24.1183,10,3,43405,73050,1,45374,BX2AKP
BV/HL-008,Taiwan,Hualien,å±é¢¨å±± (PÃ­ng FÄ“ng ShÄn ),121.343,24.1491,10,3,43405,73050,1,44984,BX2AKP
BV/HL-065,Taiwan,Hualien,BV/HL-065,121.3173,23.2159,2,3,43405,73050,4,45374,BX8AAD
BV/HL-069,Taiwan,Hualien,æœˆçœ‰å±± (YuÃ¨ MÃ©i ShÄn ),121.5521,23.8254,2,3,43405,73050,2,45297,BX8AAD
BV/HL-070,Taiwan,Hualien,é¯‰é­šå±± (LÇ YÃº ShÄn ),121.5206,23.9191,2,3,43405,73050,5,44017,BU2EQ
BV/HL-073,Taiwan,Hualien,BV/HL-073,121.2492,23.132,2,3,43405,73050,3,45351,BX2AKP
BV/HL-076,Taiwan,Hualien,ç•ªè–¯å¯®å±± (FÄn ShÇ” LiÃ¡o ShÄn),121.5404,23.7342,1,3,43405,73050,2,44304,BX8AAD
BV/HS-001,Taiwan,Hsinchu,æ¡ƒå±± (TÃ¡o ShÄn),121.3048,24.4326,10,3,43405,73050,1,44493,BX8AAD
BV/HS-009,Taiwan,Hsinchu,æŽæ£Ÿå±± (LÇ DÃ²ng ShÄn),121.3037,24.693,6,3,43405,73050,3,45361,BX2AKP
BV/HS-010,Taiwan,Hsinchu,å…§é³¥å˜´å±± (NÃ¨i NiÇŽo ZuÇ ShÄn,121.2984,24.7309,4,3,43405,73050,1,43852,BX8AAD
BV/HS-011,Taiwan,Hsinchu,éµå…¬é«»å±± (Ã‰ GÅng JÃ¬ ShÄn),121.0756,24.61,4,3,43405,73050,1,44439,BX8AAD
BV/HS-012,Taiwan,Hsinchu,BV/HS-012,121.1383,24.614,4,3,43405,73050,3,44640,BX2AI
BV/HS-013,Taiwan,Hsinchu,BV/HS-013,121.1661,24.6681,4,3,43405,73050,5,45416,BV6LC
BV/HS-014,Taiwan,Hsinchu,äº”æŒ‡å±± (WÇ” ZhÇ ShÄn),121.0961,24.6413,4,3,43405,73050,2,44072,BU2EQ
BV/HS-015,Taiwan,Hsinchu,BV/HS-015,121.0406,24.6268,2,3,43405,73050,1,44822,BX2ABT
BV/HS-017,Taiwan,Hsinchu,å¤§å±±èƒŒå±± (DÃ  ShÄn BÃ¨i ShÄn),121.1283,24.6959,2,3,43405,73050,10,44640,BX2ABT
BV/HS-018,Taiwan,Hsinchu,çŸ³ç‰›å±± (ShÃ­ NiÃº ShÄn),121.2533,24.7935,2,3,43405,73050,2,44969,BX2AKO
BV/HS-019,Taiwan,Hsinchu,ä¸‹æ©«å‘å±± (XiÃ  HÃ©ng KÄ“ng ShÄn),121.1422,24.7647,1,3,43405,73050,2,44632,BX2ABT
BV/KA-002,Taiwan,Kaohsiung,é—œå±± (GuÄn ShÄn),120.912,23.2283,10,3,43405,73050,1,45353,BX2AKP
BV/KA-003,Taiwan,Kaohsiung,å‘é™½å±± (XiÃ ng YÃ¡ng ShÄn),120.9928,23.2844,10,3,43405,73050,1,45047,BX2AKP
BV/KA-005,Taiwan,Kaohsiung,ä¸‰å‰å±±(SÄn ChÄ ShÄn),121.0286,23.2972,10,3,43405,73050,1,45046,BX2AKP
BV/KA-012,Taiwan,Kaohsiung,BV/KA-012,120.9595,23.2713,8,3,43405,73050,1,45352,BX2AKP
BV/KA-014,Taiwan,Kaohsiung,åº«å“ˆè«¾è¾›å±± (KÃ¹ HÄ NuÃ² XÄ«n ShÄn),120.8999,23.2628,8,3,43405,73050,1,45352,BX2AKP
BV/KA-046,Taiwan,Kaohsiung,ç¾Žé¾å±± (MÄ›i LÃ³ng ShÄn),120.7472,23.1194,4,3,43405,73050,1,44954,BX2AKP
BV/KA-051,Taiwan,Kaohsiung,å¤§åŽŸå±± (DÃ  YuÃ¡n ShÄn),120.6714,22.9831,4,3,43405,73050,1,43995,BV4VR
BV/KA-052,Taiwan,Kaohsiung,ç™½é›ªå±± (BÃ¡i XuÄ› ShÄn),120.6225,23.0557,4,3,43405,73050,1,44953,BX2AKP
BV/KA-057,Taiwan,Kaohsiung,æœˆå…‰å±± (YuÃ¨ GuÄng ShÄn),120.545,22.9348,2,3,43405,73050,1,44213,BV4VR
BV/KA-060,Taiwan,Kaohsiung,BV/KA-060,120.2654,22.6421,1,3,43405,73050,1,43770,BX8AAD
BV/KA-061,Taiwan,Kaohsiung,å¤§å²¡å±± (DÃ  GÄng ShÄn),120.3447,22.8414,1,3,43405,73050,1,43498,BX2AFU
BV/KA-063,Taiwan,Kaohsiung,åŠå±å±±(BÃ n PÃ­ng ShÄn),120.3131,22.7008,1,3,43405,73050,3,44870,BX2AKP
BV/MI-001,Taiwan,Miaoli,é›ªå±±ä¸»å³° (Mt. Xue Main Peak),121.2318,24.3834,10,3,43405,73050,2,45655,BX2AKP
BV/MI-002,Taiwan,Miaoli,å¤§é›ªå±± (DÃ  XuÄ› ShÄn),121.1211,24.3308,10,3,43405,73050,1,45656,BX2AKP
BV/MI-003,Taiwan,Miaoli,BV/MI-003,121.1375,24.3544,10,3,43405,73050,1,45656,BX2AKP
BV/MI-006,Taiwan,Miaoli,BV/MI-006,121.1569,24.3596,10,3,43405,73050,1,45656,BX2AKP
BV/MI-007,Taiwan,Miaoli,ç«çŸ³å±± (HuÇ’ ShÃ­ ShÄn),121.1752,24.382,10,3,43405,73050,1,45655,BX2AKP
BV/MI-008,Taiwan,Miaoli,BV/MI-008,121.0814,24.3244,8,3,43405,73050,1,45657,BX2AKP
BV/MI-014,Taiwan,Miaoli,æ±æ´—æ°´å±± (DÅng XÇ ShuÇ ShÄn),121.0247,24.4467,6,3,43405,73050,1,43737,BX3ACE
BV/MI-015,Taiwan,Miaoli,åŠ é‡Œå±±(JiÄ LÇ ShÄn),121.0122,24.5108,6,3,43405,73050,3,45564,BX2AKP
BV/MI-016,Taiwan,Miaoli,åŒ—å‘å±± (BÄ›i KÄ“ng shÄn),121.0407,24.4656,6,3,43405,73050,1,43582,BX3ACE
BV/MI-018,Taiwan,Miaoli,å“ˆå ªå°¼å±± (HÄ KÄn NÃ­ ShÄn),121.035,24.5128,6,3,43405,73050,1,45563,BX2AKP
BV/MI-020,Taiwan,Miaoli,é¦¬é‚£é‚¦å±± (MÇŽ NÃ  BÄng ShÄn),120.9136,24.3672,4,3,43405,73050,2,44625,BU4AC
BV/MI-025,Taiwan,Miaoli,é—œåˆ€å±± (GuÄn DÄo ShÄn),120.8109,24.3753,2,3,43405,73050,1,43484,BX2AFU
BV/MI-026,Taiwan,Miaoli,èœå£½å‡¸ (CÃ i ShÃ²u TÅ«),120.8252,24.3949,2,3,43405,73050,1,43954,BU2EQ
BV/MI-032,Taiwan,Miaoli,ç…é ­å±±(ShÄ« TÃ³u ShÄn),121.0142,24.6419,1,3,43405,73050,3,44822,BX2ABT
BV/NA-001,Taiwan,Nantou,çŽ‰å±±ä¸»å³° (Mt. Yu Main Peak),120.9573,23.47,10,3,43405,73050,1,44886,BX2AKP
BV/NA-007,Taiwan,Nantou,å¥‡èŠä¸»å±± (QÃ­ LÃ¡i ZhÇ” ShÄn),121.3236,24.0858,10,3,43405,73050,1,45375,BX2AKP
BV/NA-012,Taiwan,Nantou,åˆæ­¡å±±åŒ—å³° (HÃ© HuÄn ShÄn BÄ›i FÄ“ng),121.2808,24.1811,10,3,43405,73050,2,45640,BX2AKP
BV/NA-013,Taiwan,Nantou,åˆæ­¡å±±æ±å³° (HÃ© HuÄn ShÄn DÅng FÄ“ng),121.2811,24.1358,10,3,43405,73050,6,45601,BX2AKP
BV/NA-014,Taiwan,Nantou,åˆæ­¡å±± (HÃ© HuÄn ShÄn ),121.2714,24.1422,10,3,43405,73050,8,45639,BX2AKP
BV/NA-016,Taiwan,Nantou,ç•¢ç¥¿å±± (BÃ¬ lÃ¹ ShÄn),121.3472,24.2136,10,3,43405,73050,1,45241,BX2AKP
BV/NA-036,Taiwan,Nantou,å…­é †å±± (LiÃ¹ ShÃ¹n ShÄn),121.2395,23.7244,8,3,43405,73050,1,45369,BV6LC
BV/NA-044,Taiwan,Nantou,æ±åŸ”å±± (DÅng BÃ¹ ShÄn),120.8961,23.5,8,3,43405,73050,1,44885,BX2AKP
BV/NA-063,Taiwan,Nantou,BV/NA-063,121.053,23.9699,4,3,43405,73050,1,45620,BX2AKP
BV/NA-074,Taiwan,Nantou,è²“å›’å±± (MÄo LÃ¡n ShÄn),120.9078,23.8811,4,3,43405,73050,2,44289,BU2EQ
BV/NA-075,Taiwan,Nantou,å¾Œå°–å±± (HÃ²u JiÄn ShÄn),120.8981,23.8142,4,3,43405,73050,2,44289,BU2EQ
BV/NT-001,Taiwan,New Taipei,åŒ—æ’å¤©å±± (BÄ›i ChÄ TiÄn ShÄn),121.4526,24.792,4,3,43405,73050,2,45628,BX2AKP
BV/NT-002,Taiwan,New Taipei,å¡ä¿å±± (KÇŽ BÇŽo ShÄn),121.4837,24.8178,4,3,43405,73050,2,45402,BV6LC
BV/NT-003,Taiwan,New Taipei,æ‹³é ­æ¯å±± (QuÃ¡n TÃ³u MÇ” ShÄn),121.5461,24.7081,4,3,43405,73050,1,45604,BV6LC
BV/NT-011,Taiwan,New Taipei,æ‹”åˆ€çˆ¾å±± (BÃ¡ DÄo Ä›r ShÄn),121.5142,24.8525,4,3,43405,73050,5,45430,BX2AKP
BV/NT-013,Taiwan,New Taipei,å¤§å±¯å±± (DÃ  TÃºn ShÄn),121.5219,25.1766,4,3,43405,73050,12,45571,BX2AKP
BV/NT-015,Taiwan,New Taipei,å°è§€éŸ³å±± (XiÇŽo GuÄn YÄ«n ShÄn),121.5428,25.1887,4,3,43405,73050,4,45053,BX2AKO
BV/NT-016,Taiwan,New Taipei,ä¸‰è§’å´™å±± (SÄnjiÇŽo LÃºnshÄn),121.7298,24.8591,4,3,43405,73050,2,45396,BX2AKP
BV/NT-017,Taiwan,New Taipei,BV/NT-017,121.7935,24.8988,4,3,43405,73050,4,45480,BX2AKP
BV/NT-019,Taiwan,New Taipei,é¢å¤©å±± (MiÃ n TiÄn ShÄn),121.505,25.1742,2,3,43405,73050,9,45576,BV6LC
BV/NT-020,Taiwan,New Taipei,ç†Šç©ºå±± (XiÃ³ng KÅng ShÄn),121.4586,24.8684,2,3,43405,73050,4,45291,BX2AKP
BV/NT-021,Taiwan,New Taipei,å¤§æ¡¶å±± (DÃ  TÇ’ng ShÄn),121.5631,24.8761,2,3,43405,73050,1,45387,BX2AKP
BV/NT-022,Taiwan,New Taipei,BV/NT-022,121.7552,24.9241,2,3,43405,73050,1,45339,BX2AKP
BV/NT-024,Taiwan,New Taipei,ç£ºå˜´å±± (HuÃ¡ng ZuÇ ShÄn),121.6063,25.1767,2,3,43405,73050,1,44558,BX8AAD
BV/NT-025,Taiwan,New Taipei,BV/NT-025,121.4934,24.9033,2,3,43405,73050,3,45626,BX2AKP
BV/NT-026,Taiwan,New Taipei,ç«ç‡’å¯®å±± (HuÇ’ ShÄo LiÃ¡o ShÄn),121.7182,24.9745,2,3,43405,73050,4,45095,BX2AKP
BV/NT-028,Taiwan,New Taipei,é›žç½©å±± (JÄ« ZhÃ o ShÄn),121.4106,24.8882,2,3,43405,73050,1,45150,BX2AKP
BV/NT-029,Taiwan,New Taipei,äº”åˆ†å±± (WÇ” FÄ“n ShÄn),121.7806,25.0709,2,3,43405,73050,6,45309,BU2CC
BV/NT-030,Taiwan,New Taipei,ç‡¦å…‰å¯®å±± (CÃ n GuÄng LiÃ¡o ShÄn),121.8655,25.0929,2,3,43405,73050,2,45487,BX2AKP
BV/NT-031,Taiwan,New Taipei,ç›´æ½­å±± (ZhÃ­ TÃ¡n ShÄn),121.5677,24.9208,2,3,43405,73050,2,45490,BX2AKP
BV/NT-032,Taiwan,New Taipei,å§œå­å¯®å±± (JiÄng Zi LiÃ¡o ShÄn),121.7301,25.0533,2,3,43405,73050,8,44933,BX2AKP
BV/NT-033,Taiwan,New Taipei,è‰å±± (CÇŽo ShÄn),121.8758,25.094,2,3,43405,73050,4,45487,BX2AKP
BV/NT-035,Taiwan,New Taipei,äºŒæ ¼å±± (Ãˆr GÃ© ShÄn),121.6196,24.9672,2,3,43405,73050,8,45503,BV6LC
BV/NT-036,Taiwan,New Taipei,è§€éŸ³å±± (GuÄn YÄ«n ShÄn),121.4268,25.1357,2,3,43405,73050,16,45575,BX2AKP
BV/NT-037,Taiwan,New Taipei,ç£å‘é ­å±± (WÄn KÄ“ng TÃ³ushÄn),121.9102,24.975,2,3,43405,73050,3,45179,BV6LC
BV/NT-038,Taiwan,New Taipei,å³°é ­å°– (FÄ“ng TÃ³u JiÄn),121.7145,25.0062,2,3,43405,73050,1,45052,BX2AKP
BV/NT-039,Taiwan,New Taipei,çš‡å¸æ®¿æ±å³° (HuÃ¡ng DÃ¬ DiÃ n East Peak),121.6881,24.9953,2,3,43405,73050,1,44975,BX2AKP
BV/NT-040,Taiwan,New Taipei,åŸºéš†å±± (JÄ« LÃ³ng ShÄn),121.8492,25.1189,2,3,43405,73050,8,45619,BV6LC
BV/NT-043,Taiwan,New Taipei,å¤©ä¸Šå±± (TiÄn ShÃ ng ShÄn),121.4561,24.9461,1,3,43405,73050,11,45571,BV6LC
BV/NT-045,Taiwan,New Taipei,é³¶å±± (YuÄn ShÄn),121.3453,24.9267,1,3,43405,73050,7,45545,BX2AKP
BV/NT-046,Taiwan,New Taipei,æºªå—å±±(XÄ«nÃ¡n ShÄn),121.3972,24.9247,1,3,43405,73050,5,45492,BX2AKP
BV/NT-047,Taiwan,New Taipei,BV/NT-047,121.8904,25.0419,1,3,43405,73050,1,45164,BX2AKP
BV/PI-001,Taiwan,Pingtung,BV/PI-001,120.7613,22.6272,8,3,43405,73050,1,45100,BX2AKP
BV/PI-020,Taiwan,Pingtung,å¾·æ–‡å±± (DÃ© WÃ©n ShÄn),120.6923,22.764,4,3,43405,73050,1,45613,BX2AKP
BV/PI-021,Taiwan,Pingtung,BV/PI-021,120.6864,22.4206,4,3,43405,73050,1,43953,BX8AAD
BV/PI-036,Taiwan,Pingtung,BV/PI-036,120.8415,22.1671,2,3,43405,73050,2,45402,BX8AAD
BV/PI-040,Taiwan,Pingtung,BV/PI-040,120.8561,22.011,1,3,43405,73050,1,44224,BX8AAD
BV/PI-042,Taiwan,Pingtung,å¤§å±±æ¯å±± (DÃ  ShÄn MÇ” ShÄn),120.7789,21.9683,1,3,43405,73050,1,45383,BX8AAD
BV/PI-045,Taiwan,Pingtung,å—å¤ªå¹³é ‚å±± (NÃ¡n TÃ i PÃ­ng DÇng ShÄn),120.7002,22.005,1,3,43405,73050,1,43453,BX8AAD
BV/TA-002,Taiwan,Taoyuan,å¡”æ›¼å±± (TÇŽ MÃ n ShÄn),121.4505,24.7059,6,3,43405,73050,2,45360,BV6LC
BV/TA-004,Taiwan,Taoyuan,æ‹‰æ‹‰å±± (LÄ LÄ ShÄn),121.4342,24.7303,6,3,43405,73050,1,45325,BX2AKP
BV/TA-005,Taiwan,Taoyuan,å—æ’å¤©å±± (NÃ¡n ChÄ TiÄn ShÄn),121.4122,24.7606,6,3,43405,73050,1,45360,BX2AKP
BV/TA-006,Taiwan,Taoyuan,å¤«å©¦å±± (FÅ«fÃ¹ ShÄn),121.4028,24.7228,6,3,43405,73050,1,45340,BX2AKP
BV/TA-008,Taiwan,Taoyuan,æ±çœ¼å±± (DÅng YÇŽn ShÄn),121.4174,24.8251,4,3,43405,73050,10,45487,BV6LC
BV/TA-009,Taiwan,Taoyuan,é‡‘é¢å±± (JÄ«n MiÃ n ShÄn),121.3354,24.8663,2,3,43405,73050,2,45234,BV6LC
BV/TA-010,Taiwan,Taoyuan,æž•é ­å±±(ZhÄ›ntou ShÄn),121.3346,24.8114,2,3,43405,73050,2,44675,BX2ABT
BV/TA-011,Taiwan,Taoyuan,æºªæ´²å±± (XÄ« ZhÅu ShÄn),121.2772,24.8244,2,3,43405,73050,3,45227,BV6LC
BV/TA-012,Taiwan,Taoyuan,çŸ³é–€å±± (ShÃ­ MÃ©n ShÄn),121.2295,24.81,2,3,43405,73050,9,45019,BX3ADS
BV/TA-013,Taiwan,Taoyuan,å¤§æ£Ÿå±± (DÃ  DÃ²ng ShÄn),121.384,24.9959,1,3,43405,73050,20,45658,BV6LC
BV/TC-001,Taiwan,Taichung,å—æ¹–å¤§å±± (NÃ¡n hÃº dÃ s hÄn),121.4394,24.3619,10,3,43405,73050,1,45592,BX2AKP
BV/TC-004,Taiwan,Taichung,é›ªå±±å—å³° (XuÄ› shÄn nÃ¡n fÄ“ng),121.2375,24.3722,10,3,43405,73050,1,45199,BX2AKP
BV/TC-008,Taiwan,Taichung,éˆ´é³´å±± (LÃ­ng mÃ­ng shÄn),121.3517,24.2444,10,3,43405,73050,1,45248,BX2AKP
BV/TC-011,Taiwan,Taichung,é–‚å±± (ShuÄn shÄn),121.3097,24.2589,8,3,43405,73050,1,45248,BX2AKP
BV/TC-020,Taiwan,Taichung,BV/TC-020,120.9728,24.2353,6,3,43405,73050,3,45492,BX2AKP
BV/TC-021,Taiwan,Taichung,BV/TC-021,120.9406,24.2292,6,3,43405,73050,2,45493,BX2AKP
BV/TC-023,Taiwan,Taichung,æ±å¯å±± (DÅng MÇŽo ShÄn),120.9581,24.1858,4,3,43405,73050,1,45111,BX8AAD
BV/TC-031,Taiwan,Taichung,é ­åµ™å±± (TÃ³u KÄ“ ShÄn),120.8002,24.1792,2,3,43405,73050,1,45338,BX8AAD
BV/TC-033,Taiwan,Taichung,BV/TC-033,120.7803,24.2239,2,3,43405,73050,1,45339,BX8AAD
BV/TC-034,Taiwan,Taichung,çŸ³åœç‰†å±± (ShÃ­ WÃ©i QiÃ¡ng ShÄn),120.7674,24.2988,2,3,43405,73050,1,45338,BX8AAD
BV/TC-035,Taiwan,Taichung,åŸ¤é ­å±± (PÃ­ TÃ³u ShÄn),120.7529,24.1385,1,3,43405,73050,1,43670,BX8AAD
BV/TN-001,Taiwan,Tainan,å¤§å‡å±± (DÃ  DÃ²ng ShÄn),120.5226,23.3114,4,3,43405,73050,2,44660,BV4VR
BV/TP-001,Taiwan,Taipei,ä¸ƒæ˜Ÿå±± (QÄ« XÄ«ng ShÄn),121.5536,25.1708,4,3,43405,73050,11,45477,BX2AKP
BV/TP-002,Taiwan,Taipei,ç´—å¸½å±± (ShÄ MÃ o ShÄn),121.5433,25.1482,2,3,43405,73050,10,45402,BV6LC
BV/TP-003,Taiwan,Taipei,å—æ¸¯å±± (NÃ¡n GÇŽng ShÄn),121.5864,25.0262,1,3,43405,73050,10,45604,BV6LC
BV/TT-045,Taiwan,Taitung,è¦é‚£å±± (GuÄ« NÃ  ShÄn),120.9414,22.6322,4,3,43405,73050,2,45275,BX8AAD
BV/TT-051,Taiwan,Taitung,è¿½åˆ†å±± (ZhuÄ« FÄ“n ShÄn),121.0039,22.727,4,3,43405,73050,1,44414,BX8AAD
BV/TT-053,Taiwan,Taitung,éƒ½è˜­å±± (DÅu LÃ¡n ShÄn),121.1884,22.895,4,3,43405,73050,2,45051,BX8AAD
BV/TT-057,Taiwan,Taitung,BV/TT-057,120.92,22.5469,4,3,43405,73050,3,45437,BX8AAD
BV/TT-064,Taiwan,Taitung,å¤§æ´¾è˜­ (DÃ  PÃ i LÃ¡n ),121.0745,22.8731,2,3,43405,73050,6,45311,BX8AAD
BV/TT-066,Taiwan,Taitung,BV/TT-066,120.8939,22.4306,2,3,43405,73050,3,45317,BX8AAD
BV/TT-075,Taiwan,Taitung,åŒ—çµ²å—å±± (BÄ›i SÄ« NÃ¡n ShÄn),121.1153,22.8483,1,3,43405,73050,4,45304,BX8AAD
BV/TT-076,Taiwan,Taitung,æª³æ¦”å››æ ¼å±± (BÄ«n LÃ¡ng SÃ¬ GÃ© ShÄn),121.1092,22.81,1,3,43405,73050,8,45410,BX8AAD
BV/YI-005,Taiwan,Yilan,æœ›æ´‹å±± (WÃ ng YÃ¡ng ShÄn),121.6162,24.5106,6,3,43405,73050,3,44190,BU2EQ
BV/YI-034,Taiwan,Yilan,é¾œå±±å³¶ (GuÄ« ShÄn DÇŽo),121.9528,24.8414,1,3,43405,73050,1,44802,BX2ABT
C3/AD-006,Andorra,Andorra,Monturull,1.58123,42.4501,10,3,44896,73050,3,45132,EA3/SQ9NOT/P
C3/AD-007,Andorra,Andorra,Tossal de la Truita,1.58548,42.45919,10,3,44896,73050,3,45132,EA3/SQ9NOT/P
C3/AD-009,Andorra,Andorra,Bony de la Pica - Ancla,1.46047,42.50485,8,3,44896,73050,2,45131,EA3/SQ9NOT/P
C3/AD-010,Andorra,Andorra,Alt del Covil,1.45516,42.52645,8,3,44896,73050,8,45443,EA3/M0WML/P
C3/AD-011,Andorra,Andorra,Bony de les Neres,1.56408,42.54681,8,3,44896,73050,2,44921,C31VM
CE3/CO-006,Chile - Metropolitan Region,Cordillera,Cerro El Plomo,-70.2147,-33.2372,10,3,44317,73050,1,44541,CE3TDM
CE3/CO-118,Chile - Metropolitan Region,Cordillera,Cerro San Gabriel,-70.2147,-33.7572,8,3,44317,73050,1,44444,CE3TDM
CE3/SA-010,Chile - Metropolitan Region,Santiago,Cerro Cortadera Chico,-70.3639,-33.24,8,3,44317,73050,2,44786,CE3TDM
CE3/SA-011,Chile - Metropolitan Region,Santiago,Cerro San Ramon,-70.4389,-33.4858,8,3,44317,73050,1,44471,CE3TDM
CE3/SA-013,Chile - Metropolitan Region,Santiago,Cerro Carpa,-70.4683,-33.2547,6,3,44317,73050,1,45494,CA3CJQ
CE3/SA-014,Chile - Metropolitan Region,Santiago,Cerro Provincia,-70.4353,-33.4264,6,3,44317,73050,1,44575,CA3FJK
CE3/SA-016,Chile - Metropolitan Region,Santiago,Cerro Canoitas,-70.3872,-33.2964,6,3,44317,73050,3,45556,CE3TDM
CE3/SA-017,Chile - Metropolitan Region,Santiago,Cerro Loma de la Vaca,-70.4278,-33.3419,4,3,44317,73050,1,44618,CE3TDM
CE3/SA-018,Chile - Metropolitan Region,Santiago,Cerro Alto de las Vizcachas,-70.4778,-33.4236,4,3,44317,73050,4,45032,CE3ERM
CE3/SA-019,Chile - Metropolitan Region,Santiago,Cerro San Cristobal,-70.6303,-33.4206,2,0,44317,73050,4,45416,CE4ERM
CT/AA-001,Portugal,Alto Alentejo,Serra de SÃ£o Mamede,-7.36,39.3134,8,3,40634,73050,31,45659,CT7/EA4HIH
CT/AA-002,Portugal,Alto Alentejo,Castelo de MarvÃ£o,-7.3799,39.397,6,0,40634,73050,25,45660,CT7/EA4HIH
CT/AA-003,Portugal,Alto Alentejo,Serra da Ossa,-7.5842,38.7392,2,0,40634,73050,14,45380,CT7AOV/P
CT/AA-004,Portugal,Alto Alentejo,Fria,-7.3073,39.3359,6,0,40656,73050,13,45116,CT2JLS/P
CT/AA-005,Portugal,Alto Alentejo,Cruz da Penha,-7.4503,39.3033,2,0,40656,73050,14,45118,CT2JLS/P
CT/AA-006,Portugal,Alto Alentejo,Alto do Castelo,-7.5415,38.7375,2,0,40656,73050,8,44350,CT2HOV/P
CT/AA-007,Portugal,Alto Alentejo,Caldeireiros,-7.5347,38.8345,1,0,40656,73050,11,44607,CT7ASV/P
CT/AA-008,Portugal,Alto Alentejo,Monte de Vila Boim,-7.2636,38.8749,1,0,40656,73050,12,45210,CT7/HB9IIO/P
CT/AA-009,Portugal,Alto Alentejo,SÃ£o Miguel de Nisa,-7.6301,39.5755,1,0,40656,73050,7,45657,CT1JML/P
CT/AA-010,Portugal,Alto Alentejo,Penha do Alto,-7.4172,39.3773,4,0,45017,73050,1,45028,CT1MH/P
CT/AA-011,Portugal,Alto Alentejo,SÃ£o SebastiÃ£o,-8.1131,38.5769,1,0,45017,73050,3,45145,CT7/SQ9NOT/P
CT/AL-001,Portugal,Algarve,Serra de Foia,-8.5956,37.315,6,0,40634,73050,70,45630,CT7/PA9CW/p
CT/AL-002,Portugal,Algarve,Pelados,-7.9617,37.3071,1,0,40634,73050,27,45660,CS7BGZ/P
CT/AL-003,Portugal,Algarve,Cerro de SÃ£o Miguel,-7.8311,37.1017,1,0,40634,73050,42,45657,CS7BGZ/P
CT/AL-004,Portugal,Algarve,Picota,-8.5316,37.3077,4,0,40656,73050,51,45654,CT7/MM0CWJ/P
CT/AL-005,Portugal,Algarve,Rocha dos SoÃ­dos,-8.1535,37.2569,1,0,40656,73050,23,45388,CT7ASV/P
CT/AL-006,Portugal,Algarve,Negros,-8.0489,37.2607,1,0,40656,73050,20,45629,CT7/PA9CW/p
CT/AL-007,Portugal,Algarve,Serra da Rocha da Pena,-8.101,37.2567,1,0,40656,73050,30,45669,CS7BHA/P
CT/AL-008,Portugal,Algarve,Sela,-8.3869,37.3195,1,0,40656,73050,19,45627,CT7/PA9CW/p
CT/AL-009,Portugal,Algarve,CabeÃ§o de CÃ¢mara,-8.0612,37.1136,1,0,45017,73050,7,45632,CT7/PA9CW/p
CT/BA-001,Portugal,Beira Alta,Serra de Montemuro,-7.9875,40.974,10,3,40634,73050,56,45669,CT1MH/P
CT/BA-003,Portugal,Beira Alta,SÃ£o MacÃ¡rio,-8.0613,40.8756,8,3,40634,73050,45,45669,CT1MH/P
CT/BA-004,Portugal,Beira Alta,Pisco,-7.4241,40.771,6,0,40634,73050,11,45535,CT2HOV/P
CT/BA-005,Portugal,Beira Alta,Serra da Marofa,-6.9917,40.8645,6,0,40634,73050,14,45665,CT1JML/P
CT/BA-006,Portugal,Beira Alta,SÃ£o LourenÃ§o,-7.8411,40.832,6,0,40634,73050,9,45529,CT7/EA2CW/P
CT/BA-007,Portugal,Beira Alta,Santinha,-7.5393,40.4723,10,3,40656,73050,11,45316,CT1MH/P
CT/BA-008,Portugal,Beira Alta,Corredor de Mouros,-7.4921,40.4389,10,3,40656,73050,11,45315,CT1MH/P
CT/BA-009,Portugal,Beira Alta,CabeÃ§o da Azinha,-7.4622,40.4316,8,3,40656,73050,9,45315,CT1MH/P
CT/BA-010,Portugal,Beira Alta,Pedra Posta,-8.1026,41.0075,8,3,40656,73050,37,45634,CT2HOV/P
CT/BA-011,Portugal,Beira Alta,Mosqueiros,-7.3564,40.4528,8,3,40656,73050,18,45470,CT2IUV/P
CT/BA-012,Portugal,Beira Alta,Candal,-8.183,40.8425,8,3,40656,73050,43,45654,CT1EBM/P
CT/BA-013,Portugal,Beira Alta,Nossa Senhora do Castelo,-8.1515,41.0334,8,3,40656,73050,36,45634,CT2HOV/P
CT/BA-014,Portugal,Beira Alta,CabeÃ§o das FrÃ¡guas,-7.2226,40.425,8,3,40656,73050,7,44846,CT2IUV/P
CT/BA-015,Portugal,Beira Alta,Serra da Laboreira,-7.4184,41.0118,8,3,40656,73050,11,45535,CT2HOV/P
CT/BA-016,Portugal,Beira Alta,MÃ£e da Loba,-7.5799,41.0728,6,0,40656,73050,12,45606,CT2HOV/P
CT/BA-017,Portugal,Beira Alta,Serra de Opa,-7.2126,40.286,6,0,40656,73050,9,45609,CT1MH/P
CT/BA-018,Portugal,Beira Alta,LadÃ¡rio,-8.2887,40.703,4,0,40656,73050,17,45627,CT2HOV/P
CT/BA-019,Portugal,Beira Alta,Senhora do Viso,-7.3279,41.093,4,0,40656,73050,7,45535,CT2HOV/P
CT/BA-020,Portugal,Beira Alta,Senhora do Vencimento,-7.444,41.159,4,0,40656,73050,11,45655,CT2IWW/P
CT/BA-021,Portugal,Beira Alta,Cimal,-7.9841,40.881,4,0,40656,73050,10,45130,CT2IWW/P
CT/BA-022,Portugal,Beira Alta,SÃ£o Domingos,-7.5246,41.1368,4,0,40656,73050,8,45655,CT2IWW/P
CT/BA-023,Portugal,Beira Alta,CabeÃ§a Grande,-7.3071,40.668,4,0,40656,73050,7,45062,CS7AUC/P
CT/BA-024,Portugal,Beira Alta,SÃ£o Gabriel,-7.0893,41.0363,2,0,40656,73050,5,44440,CT1DYH/P
CT/BA-025,Portugal,Beira Alta,CalÃ¡bria,-7.0158,41.0301,1,0,40656,73050,4,44416,CT1MH/P
CT/BA-026,Portugal,Beira Alta,Castelo Velho,-7.1402,41.1506,1,0,40656,73050,3,44415,CT1MH/P
CT/BA-027,Portugal,Beira Alta,Caramulinho,-8.2021,40.5473,8,3,45017,73050,13,45669,CT1MH/P
CT/BA-028,Portugal,Beira Alta,Janus,-8.1206,40.6418,8,3,45017,73050,13,45669,CT1MH/P
CT/BA-029,Portugal,Beira Alta,Rainha,-7.2319,40.6065,6,0,45017,73050,2,45535,CT2HOV/P
CT/BA-030,Portugal,Beira Alta,Pousadas,-7.6582,40.5958,4,0,45017,73050,4,45658,CT7ACF/P
CT/BA-031,Portugal,Beira Alta,Castelo de NumÃ£o,-7.2909,41.1008,4,0,45017,73050,9,45655,CT2IWW/P
CT/BA-032,Portugal,Beira Alta,CabeÃ§o de Boi,-7.427,40.6744,2,0,45017,73050,3,45536,CT2HOV/P
CT/BB-001,Portugal,Beira Baixa,Serra da Estrela,-7.6126,40.3219,10,3,40634,73050,70,45675,CT2GVH/P
CT/BB-002,Portugal,Beira Baixa,Serra da Gardunha,-7.5255,40.0805,8,3,40634,73050,40,45675,CT1EBM/P
CT/BB-003,Portugal,Beira Baixa,CabeÃ§o Rainha,-7.9257,39.8484,8,3,40634,73050,28,45658,CT1JML/P
CT/BB-004,Portugal,Beira Baixa,Serra do Moradal,-7.784,39.9896,6,0,40634,73050,12,45671,CT1MH/P
CT/BB-005,Portugal,Beira Baixa,Serra da MelriÃ§a,-8.1306,39.6945,1,0,40634,73050,19,45658,CT1JML/P
CT/BB-006,Portugal,Beira Baixa,Encosta do Diabo,-7.5793,40.295,10,3,40656,73050,33,45675,CT1EBM/P
CT/BB-007,Portugal,Beira Baixa,Santo AntÃ³nio da Neve,-8.1627,40.0774,8,3,40656,73050,43,45673,CT7AUP/P
CT/BB-008,Portugal,Beira Baixa,Zibreiro,-7.709,40.0289,8,3,40656,73050,19,45671,CT1MH/P
CT/BB-009,Portugal,Beira Baixa,Mata da Atalaia,-7.417,40.3717,8,3,40656,73050,10,45315,CT1MH/P
CT/BB-010,Portugal,Beira Baixa,Serra da Malcata,-7.0713,40.2328,8,3,40656,73050,8,45609,CT1MH/P
CT/BB-011,Portugal,Beira Baixa,Serra da MaunÃ§a,-7.6491,40.0984,8,3,40656,73050,26,45675,CT1EBM/P
CT/BB-012,Portugal,Beira Baixa,Povoinha,-7.9628,39.9409,6,0,40656,73050,19,45658,CT1JML/P
CT/BB-013,Portugal,Beira Baixa,Espadana,-7.8804,39.819,6,0,40656,73050,20,45659,CT1JML/P
CT/BB-014,Portugal,Beira Baixa,CabeÃ§a Gorda,-7.7414,39.9942,6,0,40656,73050,12,45671,CT1MH/P
CT/BB-015,Portugal,Beira Baixa,Sarzedinha,-7.7668,39.9484,6,0,40656,73050,9,45671,CT1MH/P
CT/BB-016,Portugal,Beira Baixa,Marvaninha,-7.0512,40.1889,4,0,40656,73050,3,44133,CT7AQS/P
CT/BB-017,Portugal,Beira Baixa,Serra da Gorda,-6.9738,40.0268,4,0,40656,73050,4,44086,CT2HOV/P
CT/BB-018,Portugal,Beira Baixa,Santa Marta,-7.2399,40.2052,4,0,40656,73050,7,45609,CT1MH/P
CT/BB-019,Portugal,Beira Baixa,Serra do Gomes,-7.5881,40.1513,4,0,40656,73050,8,44737,CT2IXX/P
CT/BB-020,Portugal,Beira Baixa,Meal Redondo,-7.4345,40.2193,4,0,40656,73050,10,45389,CT2IXX/P
CT/BB-021,Portugal,Beira Baixa,Campo Frio,-7.0762,40.0884,4,0,40656,73050,5,45610,CT1MH/P
CT/BB-022,Portugal,Beira Baixa,Canafichal,-7.1112,40.178,4,0,40656,73050,4,45610,CT1MH/P
CT/BB-023,Portugal,Beira Baixa,Monsanto,-7.1138,40.0355,4,0,40656,73050,9,45610,CT1MH/P
CT/BB-024,Portugal,Beira Baixa,Serra da EsperanÃ§a,-7.3583,40.3412,4,0,40656,73050,12,45655,CT2HOV/P
CT/BB-025,Portugal,Beira Baixa,VergÃ£o,-7.9909,39.7544,2,0,40656,73050,15,45110,CT7ABE/P
CT/BB-026,Portugal,Beira Baixa,Galego,-7.7749,39.7725,2,0,40656,73050,6,44447,CT7AQS/P
CT/BB-027,Portugal,Beira Baixa,Murracha,-7.0257,39.9634,1,0,40656,73050,3,44002,CT2HOV/P
CT/BB-028,Portugal,Beira Baixa,Penedo Gordo,-7.7007,39.6791,1,0,40656,73050,18,45322,CT2IUV/P
CT/BB-029,Portugal,Beira Baixa,Monte da Mendeira,-8.2647,39.7888,1,0,40656,73050,8,45658,CT1JML/P
CT/BB-030,Portugal,Beira Baixa,Castelo,-7.2879,39.7278,1,0,40656,73050,4,44002,CT2HOV/P
CT/BB-031,Portugal,Beira Baixa,Arega,-8.3289,39.8397,1,0,40656,73050,9,45320,CT2IUV/P
CT/BB-032,Portugal,Beira Baixa,CabeÃ§o de SÃ£o CornÃ©lio,-7.1808,40.3514,8,3,45017,73050,5,45609,CT1MH/P
CT/BB-033,Portugal,Beira Baixa,Moreirinha,-7.1158,40.0614,2,0,45017,73050,2,45261,CT2HOV/P
CT/BB-034,Portugal,Beira Baixa,Alvaiade,-7.719,39.7046,1,0,45017,73050,3,45297,CT2HOV/P
CT/BB-035,Portugal,Beira Baixa,Serra de Magarefe,-7.6939,39.8901,1,0,45017,73050,2,45297,CT2HOV/P
CT/BL-002,Portugal,Beira Litoral,Alto do Trevim,-8.1789,40.0895,8,3,40634,73050,44,45673,CT7AUP/P
CT/BL-003,Portugal,Beira Litoral,Rocha,-7.8792,40.14,8,3,40634,73050,28,45673,CT7AUP/P
CT/BL-004,Portugal,Beira Litoral,Detrelo da Malhada,-8.2547,40.8852,8,3,40634,73050,53,45669,CT1MH/P
CT/BL-005,Portugal,Beira Litoral,Serra de AlvaiÃ¡zere,-8.4111,39.8286,2,0,40634,73050,21,45508,CS7BDJ/P
CT/BL-006,Portugal,Beira Litoral,Serra de SicÃ³,-8.5446,39.9225,1,0,40634,73050,14,45403,CT1MH/P
CT/BL-007,Portugal,Beira Litoral,Serra do BuÃ§aco,-8.3584,40.3686,1,0,40634,73050,15,45625,CT2IWW/P
CT/BL-008,Portugal,Beira Litoral,Serra da Boa Viagem,-8.8823,40.2015,1,0,40634,73050,28,45625,CT2IWW/P
CT/BL-009,Portugal,Beira Litoral,Picoto da Cebola,-7.8095,40.1816,10,3,40656,73050,31,45673,CT7AUP/P
CT/BL-010,Portugal,Beira Litoral,Monte do Culcurinho,-7.8261,40.2662,8,3,40656,73050,25,45660,CT1MH/P
CT/BL-011,Portugal,Beira Litoral,Chiqueiro,-7.7747,40.1465,8,3,40656,73050,17,45673,CT7AUP/P
CT/BL-012,Portugal,Beira Litoral,Decabelos,-7.9524,40.1086,8,3,40656,73050,29,45673,CT7AUP/P
CT/BL-013,Portugal,Beira Litoral,Gatucha,-8.0044,40.1739,6,0,40656,73050,11,45625,CT2HOV/P
CT/BL-014,Portugal,Beira Litoral,CabeÃ§o do Souto,-7.8531,40.0811,6,0,40656,73050,7,45400,CT1MH/P
CT/BL-015,Portugal,Beira Litoral,Vieiro,-8.0464,40.1683,6,0,40656,73050,9,45625,CT2HOV/P
CT/BL-016,Portugal,Beira Litoral,CabeÃ§o da Urra,-7.9508,40.029,6,0,40656,73050,9,45400,CT1MH/P
CT/BL-018,Portugal,Beira Litoral,Vale Grande,-8.8665,39.5495,2,0,40656,73050,39,45599,CT1MH/P
CT/BL-019,Portugal,Beira Litoral,SacÃµes,-8.1568,40.1556,2,0,40656,73050,3,44358,CT2HOV/P
CT/BL-020,Portugal,Beira Litoral,Serra de Mendiga,-8.7826,39.5355,1,0,40656,73050,28,45599,CT1MH/P
CT/BL-021,Portugal,Beira Litoral,Serra da Aveleira,-8.3498,40.2584,1,0,40656,73050,9,45625,CT2IWW/P
CT/BL-022,Portugal,Beira Litoral,Serra do RabaÃ§al,-8.5004,40.0308,1,0,40656,73050,19,45403,CT2HOV/P
CT/BL-023,Portugal,Beira Litoral,Monte de Vez,-8.4039,40.0001,1,0,40656,73050,15,44654,CT7ALM/P
CT/BL-024,Portugal,Beira Litoral,Serra do Pereiro,-8.4244,40.8648,1,0,40656,73050,26,45459,CT2HBL/P
CT/BL-025,Portugal,Beira Litoral,Serra de Santa QuitÃ©ria,-8.1507,40.2112,1,0,40656,73050,3,44386,CT2JLS/P
CT/BL-026,Portugal,Beira Litoral,CÃ´moros,-8.3081,40.2241,1,0,40656,73050,12,45625,CT2IWW/P
CT/BL-027,Portugal,Beira Litoral,ChÃ£s,-8.3493,40.1663,1,0,40656,73050,11,44358,CT2HOV/P
CT/BL-028,Portugal,Beira Litoral,SÃ£o Pedro de AÃ§or,-7.818,40.2156,10,3,45017,73050,5,45660,CT1MH/P
CT/BL-029,Portugal,Beira Litoral,Alto da Senhora da MÃ³,-8.22,40.9372,4,0,45017,73050,11,45657,CT2HOV/P
CT/BL-030,Portugal,Beira Litoral,Senhora da Peneda,-7.7467,40.0789,4,0,45017,73050,2,45297,CT2HOV/P
CT/BL-031,Portugal,Beira Litoral,Pega,-8.4617,40.0773,1,0,45017,73050,4,45653,CT1MH/P
CT/BT-001,Portugal,Baixo Alentejo,Serra de MÃº,-8.0807,37.3708,1,0,40634,73050,26,45566,CT7ASV/P
CT/BT-002,Portugal,Baixo Alentejo,Serra da AdiÃ§a,-7.3093,38.0081,1,0,40634,73050,3,45059,CT7ARW/P
CT/BT-003,Portugal,Baixo Alentejo,Serra da Vigia,-8.3864,37.615,1,0,40634,73050,7,44359,CT7/K9PM/P
CT/BT-004,Portugal,Baixo Alentejo,Atalaia de GrÃ¢ndola,-8.6456,38.1692,1,0,40634,73050,25,45623,CT7ABE/P
CT/BT-005,Portugal,Baixo Alentejo,Santo Isidoro,-8.6918,37.762,1,0,40634,73050,8,44363,CT7/K9PM/P
CT/BT-006,Portugal,Baixo Alentejo,Serra de Ficalho,-7.2852,37.965,1,0,40656,73050,5,44977,CT7ARW/P
CT/BT-008,Portugal,Baixo Alentejo,Serro Alcaria Ruiva,-7.7614,37.7004,1,0,40656,73050,9,44975,CT7ARW/P
CT/BT-009,Portugal,Baixo Alentejo,SÃ£o Pedro,-7.7158,38.3327,1,0,45017,73050,3,45206,CT7/HB9IIO/P
CT/BT-010,Portugal,Baixo Alentejo,Serra Alta,-7.3359,38.0638,1,0,45017,73050,2,45111,CT2JLS/P
CT/BT-011,Portugal,Baixo Alentejo,SÃ£o BarÃ£o,-7.7536,37.6696,1,0,45017,73050,1,45035,CT1MH/P
CT/DL-001,Portugal,Douro Litoral,Serra do MarÃ£o,-7.8864,41.2486,10,3,40634,73050,56,45648,CT1MH/P
CT/DL-002,Portugal,Douro Litoral,CitÃ¢nia de Sanfins,-8.3861,41.3236,1,0,40634,73050,38,45648,CT2HOV/P
CT/DL-003,Portugal,Douro Litoral,Serra de Santa Justa,-8.4935,41.1716,1,0,40634,73050,56,45646,CT2IWW/P
CT/DL-004,Portugal,Douro Litoral,Pena Suar,-7.9165,41.2956,8,3,40656,73050,40,45655,CT1MH/P
CT/DL-005,Portugal,Douro Litoral,Aboboreira,-8.0284,41.1957,6,0,40656,73050,27,45598,CT2HOV/P
CT/DL-006,Portugal,Douro Litoral,ChÃ£ de Arcas,-7.96,41.1869,6,0,40656,73050,16,45657,CT2JLS/P
CT/DL-007,Portugal,Douro Litoral,Alto de Lamas,-8.1352,41.1137,2,0,40656,73050,21,45652,CT2IUV/P
CT/DL-008,Portugal,Douro Litoral,Brenha,-8.2321,41.1884,1,0,40656,73050,15,45633,CT2HOV/P
CT/DL-010,Portugal,Douro Litoral,BorranÃ§a,-7.9557,41.354,1,0,40656,73050,12,45340,CT2IWW/P
CT/DL-011,Portugal,Douro Litoral,Serra da Boneca,-8.3461,41.0636,1,0,40656,73050,28,45605,CT2GSN/P
CT/DL-012,Portugal,Douro Litoral,Vandoma,-8.3906,41.2001,1,0,40656,73050,23,45652,CT2IWW/P
CT/DL-013,Portugal,Douro Litoral,Monte de Santiago,-8.2273,41.0976,1,0,40656,73050,16,45375,CT2IWW
CT/DL-014,Portugal,Douro Litoral,Serra de Pias,-8.4679,41.145,1,0,40656,73050,19,45646,CT2IWW/P
CT/DL-015,Portugal,Douro Litoral,SÃ£o Salvador,-8.0946,41.2366,1,0,40656,73050,31,45657,CT2JLS/P
CT/DL-016,Portugal,Douro Litoral,Outeiro Alto,-8.4884,41.2926,1,0,40656,73050,18,45654,CT2IWW/P
CT/DL-017,Portugal,Douro Litoral,Monte TelÃ©grafo,-8.2738,41.31,1,0,45017,73050,4,45143,CT2GSN/P
CT/DL-018,Portugal,Douro Litoral,Serra de Santa Iria,-8.4108,41.0963,1,0,45017,73050,7,45458,CT2HOV/P
CT/DL-019,Portugal,Douro Litoral,Serra das Flores,-8.4422,41.0911,1,0,45017,73050,6,45375,CT2IWW
CT/DL-020,Portugal,Douro Litoral,Cornadinho,-8.4846,41.241,1,0,45017,73050,9,45654,CT2IWW/P
CT/ES-001,Portugal,Estremadura,Serra do Montejunto,-9.0487,39.1736,2,0,40634,73050,78,45656,CT1END/P
CT/ES-002,Portugal,Estremadura,Cruz Alta,-9.3913,38.782,1,0,40634,73050,33,45652,CT7/DO6JSA
CT/ES-003,Portugal,Estremadura,Alto do Formosinho,-9.0001,38.481,1,0,40634,73050,23,45363,CT7/DB5TR/P
CT/ES-005,Portugal,Estremadura,Monte do AlqueidÃ£o,-9.1513,38.9868,1,0,40656,73050,120,45653,CT1JML/P
CT/ES-006,Portugal,Estremadura,Monfirre,-9.2475,38.8699,1,0,40656,73050,34,45626,CT2IWW/P
CT/ES-007,Portugal,Estremadura,Senhora do Socorro,-9.2249,39.0176,1,0,40656,73050,129,45657,CT7AUP/P
CT/ES-008,Portugal,Estremadura,PÃ­ncaro,-9.0493,38.4466,1,0,40656,73050,15,45199,CT2IWW/P
CT/ES-009,Portugal,Estremadura,SÃ£o LuÃ­s da Serra,-8.9383,38.5339,1,0,40656,73050,38,45598,CS5FF/P
CT/ES-010,Portugal,Estremadura,Monte Serves,-9.0905,38.8941,1,0,40656,73050,36,45647,CT1JML/P
CT/ES-011,Portugal,Estremadura,Atalaia,-9.2425,38.9158,1,0,45017,73050,15,45647,CT1JML/P
CT/ES-012,Portugal,Estremadura,CabeÃ§o de Montachique,-9.1941,38.8983,1,0,45017,73050,22,45655,CT1END/P
CT/MN-001,Portugal,Minho,Alto da Pedrada,-8.2917,41.9296,10,3,40634,73050,17,45613,CT2HKN/P
CT/MN-002,Portugal,Minho,LouriÃ§a,-8.1952,41.813,10,3,40634,73050,10,45494,CT2HOV/P
CT/MN-003,Portugal,Minho,Cabreira,-8.0436,41.6391,8,3,40634,73050,30,45634,CT2IQK/P
CT/MN-004,Portugal,Minho,Corno de Bico,-8.5184,41.8678,6,0,40634,73050,20,45649,CT2HOV/P
CT/MN-005,Portugal,Minho,Alto do Espinheiro,-8.6967,41.8116,4,0,40634,73050,30,45652,CT1ILT/P
CT/MN-006,Portugal,Minho,Oural,-8.4594,41.7288,4,0,40634,73050,17,45442,CR7BIO/P
CT/MN-007,Portugal,Minho,Borrageiro,-8.119,41.7587,10,3,40656,73050,9,44814,CT2HOV/P
CT/MN-008,Portugal,Minho,Pedrinho,-8.3073,41.9688,10,3,40656,73050,13,44826,CT1MH/P
CT/MN-009,Portugal,Minho,Fojo,-8.2559,42.0079,8,3,40656,73050,38,45673,CT7/EA1FBU/P
CT/MN-010,Portugal,Minho,Picos,-8.2032,42.0687,8,3,40656,73050,38,45673,CT7/EA1FBU/P
CT/MN-011,Portugal,Minho,Penameda,-8.2378,41.9879,8,3,40656,73050,13,45060,CT7ABG/P
CT/MN-012,Portugal,Minho,PÃ© de Cabril,-8.1579,41.7667,8,3,40656,73050,9,44896,CT2HOV/P
CT/MN-013,Portugal,Minho,Cruz do Touro,-8.16493,41.81822,8,3,40656,73050,7,44897,CT2HOV/P
CT/MN-014,Portugal,Minho,Cerdeira,-7.9478,41.7398,8,3,40656,73050,27,45578,CS7AWH/P
CT/MN-015,Portugal,Minho,ChÃ£ de MatanÃ§a,-8.1917,42.0173,8,3,40656,73050,11,44842,CT1MH/P
CT/MN-016,Portugal,Minho,Torrinheiras,-7.9817,41.5989,8,3,40656,73050,25,45620,CT2HOV/P
CT/MN-018,Portugal,Minho,Piorneiro,-8.2359,41.7193,6,0,40656,73050,13,45599,CT7AQP/P
CT/MN-019,Portugal,Minho,Alto do Morgair,-8.1163,41.5419,6,0,40656,73050,28,45648,CT2IWW/P
CT/MN-020,Portugal,Minho,Lapela,-8.0609,41.5459,6,0,40656,73050,21,45648,CT2IWW/P
CT/MN-021,Portugal,Minho,Alagoa de Cima,-8.4315,41.9733,4,0,40656,73050,21,45598,CT2GSN/P
CT/MN-022,Portugal,Minho,Monte CotÃ£o,-8.4924,41.9547,4,0,40656,73050,12,44780,CT1MH/P
CT/MN-024,Portugal,Minho,Penouta,-8.0481,41.5004,4,0,40656,73050,18,45324,CT2IWW/P
CT/MN-025,Portugal,Minho,Picota,-8.2067,41.7577,4,0,40656,73050,14,45599,CT7AQP/P
CT/MN-026,Portugal,Minho,Alto do GiÃ£o,-8.3245,41.8649,4,0,40656,73050,15,45637,CT2GSN/P
CT/MN-027,Portugal,Minho,Senhora da Orada,-8.0264,41.4882,4,0,40656,73050,33,45644,CT1JML/P
CT/MN-028,Portugal,Minho,Castelo da NÃ³brega,-8.3743,41.7706,4,0,40656,73050,24,45675,CS7BIO/P
CT/MN-029,Portugal,Minho,Alto da Senhora da Lapa,-8.1775,41.6149,4,0,40656,73050,16,45652,CT2HOV/P
CT/MN-030,Portugal,Minho,Alto de SÃ£o Mamede de Penafiel,-8.2464,41.628,4,0,40656,73050,26,45652,CT2HOV/P
CT/MN-031,Portugal,Minho,CitÃ¢nia do LadÃ¡rio,-7.9914,41.4624,2,0,40656,73050,24,45654,CT2GSN/P
CT/MN-032,Portugal,Minho,Alto da Pena,-8.7147,41.9216,2,0,40656,73050,26,45409,CR7BIO/P
CT/MN-033,Portugal,Minho,Monte da Penha,-8.2687,41.4295,2,0,40656,73050,47,45648,CT2HOV/P
CT/MN-034,Portugal,Minho,Santa Marinha,-8.2247,41.5032,2,0,40656,73050,21,45549,CT2IWW/P
CT/MN-035,Portugal,Minho,Sameiro,-8.3695,41.5418,1,0,40656,73050,39,45658,CT2GSN/P
CT/MN-036,Portugal,Minho,Nora,-8.5978,41.7149,1,0,40656,73050,15,45444,CT2GSN/P
CT/MN-037,Portugal,Minho,Santa Luzia,-8.8081,41.7627,1,0,40656,73050,22,45409,CT2GSN/P
CT/MN-038,Portugal,Minho,Formigoso,-8.6139,41.8366,1,0,40656,73050,6,44779,CT1MH/P
CT/MN-039,Portugal,Minho,Outinho,-8.3811,41.4976,1,0,40656,73050,18,45653,CT2IWW/P
CT/MN-040,Portugal,Minho,Monte da Padela,-8.6492,41.6754,1,0,40656,73050,16,45606,CT2GSN/P
CT/MN-042,Portugal,Minho,Penedo das Letras,-8.4577,41.4671,1,0,40656,73050,24,45579,CT2GSN/P
CT/MN-043,Portugal,Minho,Aguieira,-8.7538,41.7532,1,0,40656,73050,9,45579,CT2GSN/P
CT/MN-044,Portugal,Minho,Antelas,-8.6183,41.8032,1,0,40656,73050,8,45541,CT2GSN/P
CT/MN-045,Portugal,Minho,AirÃ³,-8.521,41.5191,1,0,40656,73050,18,45653,CT2IWW/P
CT/MN-046,Portugal,Minho,Alto da Espiga,-8.8323,41.8352,1,0,40656,73050,32,45562,CT7/N6JFD/P
CT/MN-047,Portugal,Minho,Senhora dos Montes,-8.3435,41.4047,1,0,40656,73050,26,45656,CT7ALW/P
CT/MN-048,Portugal,Minho,Monte de Goios,-8.7764,41.9064,1,0,40656,73050,16,45419,CT2GSN/P
CT/MN-049,Portugal,Minho,Castro,-8.4037,41.4183,1,0,40656,73050,34,45668,CT2GSN/P
CT/MN-050,Portugal,Minho,Monte da Saia,-8.5852,41.4557,1,0,40656,73050,17,45653,CT2IWW/P
CT/MN-051,Portugal,Minho,Pico da Nevosa,-8.04098,41.82468,10,3,45017,73050,7,45204,CT1MH/P
CT/MN-052,Portugal,Minho,Giestoso,-8.103,42.0398,10,3,45017,73050,10,45318,CT1HIX/P
CT/MN-053,Portugal,Minho,Outeiro Alvo,-8.2229,42.0069,10,3,45017,73050,6,45325,CT2HOV/P
CT/MN-054,Portugal,Minho,Nossa Senhora do Viso,-8.0628,41.4119,6,0,45017,73050,28,45660,CT2HBL
CT/MN-055,Portugal,Minho,Pedreira,-8.0754,41.4656,6,0,45017,73050,10,45658,CT2IQK/P
CT/MN-056,Portugal,Minho,Pedra AlÃ§ada,-8.7454,41.8296,4,0,45017,73050,8,45649,CT2HOV/P
CT/MN-057,Portugal,Minho,Santa Cruz,-8.3312,41.6744,1,0,45017,73050,6,45458,CT2GSN/P
CT/MN-058,Portugal,Minho,Lajedas,-8.2426,41.5176,1,0,45017,73050,4,45549,CT2IWW/P
CT/MN-059,Portugal,Minho,SÃ£o GonÃ§alo,-8.6747,41.5869,1,0,45017,73050,7,45388,CR7BIO/P
CT/MN-060,Portugal,Minho,Penedice,-8.4124,41.4766,1,0,45017,73050,12,45647,CT2HOV/P
CT/MN-061,Portugal,Minho,Franqueira,-8.6455,41.4894,1,0,45017,73050,22,45657,CT2GSN/P
CT/MN-062,Portugal,Minho,Castelo do Neiva,-8.7932,41.6303,1,0,45017,73050,7,45561,CT7/N6JFD/P
CT/RB-001,Portugal,Ribatejo,Serra de Aire,-8.6368,39.5357,2,0,40634,73050,21,45654,CT1MH/P
CT/RB-002,Portugal,Ribatejo,Serra do Bando dos Santos,-7.9751,39.6138,2,0,40656,73050,7,44472,CT2JLS/P
CT/RB-003,Portugal,Ribatejo,Monte de MaÃ§Ã£o,-8.028,39.6224,2,0,40656,73050,7,44472,CT2JLS/P
CT/RB-004,Portugal,Ribatejo,Junqueira,-8.2579,39.757,1,0,40656,73050,7,44394,CT2JLS/P
CT/TM-002,Portugal,TrÃ¡s-os-Montes e Alto Douro,Serra da Nogueira,-6.8554,41.7173,10,3,40634,73050,22,45676,CT7AQP/P
CT/TM-003,Portugal,TrÃ¡s-os-Montes e Alto Douro,Vaqueiro,-7.8392,41.3395,10,3,40634,73050,36,45655,CT1MH/P
CT/TM-004,Portugal,TrÃ¡s-os-Montes e Alto Douro,Armada,-7.8484,41.694,8,3,40634,73050,29,45669,CT2IWW/P
CT/TM-005,Portugal,TrÃ¡s-os-Montes e Alto Douro,Coroa,-7.0038,41.9151,8,3,40634,73050,11,45676,CT7AQP/P
CT/TM-006,Portugal,TrÃ¡s-os-Montes e Alto Douro,Serra de Bornes,-7.0069,41.4341,8,3,40634,73050,14,45520,CT7/EA2WX/P
CT/TM-007,Portugal,TrÃ¡s-os-Montes e Alto Douro,Padrela,-7.5175,41.5623,8,3,40634,73050,31,45669,CT2IWW/P
CT/TM-008,Portugal,TrÃ¡s-os-Montes e Alto Douro,Cabreiro,-7.6343,41.4154,8,3,40634,73050,16,45655,CT1MH/P
CT/TM-009,Portugal,TrÃ¡s-os-Montes e Alto Douro,Alto do Picoto,-7.3327,41.4708,8,3,40634,73050,11,45613,CT2IWW/P
CT/TM-012,Portugal,TrÃ¡s-os-Montes e Alto Douro,Caravelas,-7.7639,41.3621,10,3,40656,73050,37,45655,CT1MH/P
CT/TM-013,Portugal,TrÃ¡s-os-Montes e Alto Douro,Facho,-7.8197,41.7953,8,3,40656,73050,25,45656,CT1MH/P
CT/TM-014,Portugal,TrÃ¡s-os-Montes e Alto Douro,Pena Mourisca,-6.9126,41.6569,8,3,40656,73050,8,45613,CT2IWW/P
CT/TM-015,Portugal,TrÃ¡s-os-Montes e Alto Douro,Monte de Meixedo,-7.7148,41.8137,8,3,40656,73050,16,45656,CT1MH/P
CT/TM-016,Portugal,TrÃ¡s-os-Montes e Alto Douro,MinhÃ©u,-7.6882,41.5492,8,3,40656,73050,21,45598,CT2HOV/P
CT/TM-017,Portugal,TrÃ¡s-os-Montes e Alto Douro,Seixa,-7.8956,41.6042,8,3,40656,73050,19,45657,CT2IWW/P
CT/TM-018,Portugal,TrÃ¡s-os-Montes e Alto Douro,Leiranco,-7.6474,41.7322,8,3,40656,73050,28,45656,CT1MH/P
CT/TM-020,Portugal,TrÃ¡s-os-Montes e Alto Douro,Coroto,-6.7719,41.8981,8,3,40656,73050,4,44419,CT1MH/P
CT/TM-021,Portugal,TrÃ¡s-os-Montes e Alto Douro,EscarÃ£o,-7.5623,41.3989,8,3,40656,73050,15,45431,CT2IWW/P
CT/TM-022,Portugal,TrÃ¡s-os-Montes e Alto Douro,Pedras,-7.7043,41.6263,8,3,40656,73050,11,45669,CT2IWW/P
CT/TM-023,Portugal,TrÃ¡s-os-Montes e Alto Douro,Serra da Castanheira,-6.6071,41.3918,6,0,40656,73050,11,45516,CT7/EA2WX/P
CT/TM-024,Portugal,TrÃ¡s-os-Montes e Alto Douro,CabeÃ§a Velha,-6.5945,41.8902,6,0,40656,73050,6,45531,CT7/EA2WX/P
CT/TM-025,Portugal,TrÃ¡s-os-Montes e Alto Douro,Bentozelos,-7.8639,41.4433,6,0,40656,73050,14,45403,CT2IWW
CT/TM-026,Portugal,TrÃ¡s-os-Montes e Alto Douro,Arrasca,-7.1515,41.9138,6,0,40656,73050,8,45531,CT7/EA2WX/P
CT/TM-027,Portugal,TrÃ¡s-os-Montes e Alto Douro,TelÃ©grafo,-7.6561,41.5956,6,0,40656,73050,9,45487,CT2IWW/P
CT/TM-028,Portugal,TrÃ¡s-os-Montes e Alto Douro,Mua,-6.9557,41.1949,6,0,40656,73050,7,44473,CT7/EA4DON/P
CT/TM-029,Portugal,TrÃ¡s-os-Montes e Alto Douro,Senhora da GraÃ§a,-7.308,41.2592,6,0,40656,73050,7,45525,CT7/EA2CW/P
CT/TM-030,Portugal,TrÃ¡s-os-Montes e Alto Douro,CabeÃ§o do Outeiro,-6.759,41.2108,6,0,40656,73050,4,44417,CT1MH/P
CT/TM-031,Portugal,TrÃ¡s-os-Montes e Alto Douro,Garraia,-7.3937,41.4433,6,0,40656,73050,5,44475,CT1MH/P
CT/TM-032,Portugal,TrÃ¡s-os-Montes e Alto Douro,SÃ£o Domingos,-7.6016,41.2052,6,0,40656,73050,13,45655,CT2IWW/P
CT/TM-033,Portugal,TrÃ¡s-os-Montes e Alto Douro,Carpinteiro,-7.1936,41.1867,6,0,40656,73050,3,44418,CT1MH/P
CT/TM-034,Portugal,TrÃ¡s-os-Montes e Alto Douro,AnsiÃ£es,-7.3294,41.203,4,0,40656,73050,3,44441,CT1MH/P
CT/TM-035,Portugal,TrÃ¡s-os-Montes e Alto Douro,Moaz,-7.0283,41.805,4,0,40656,73050,6,45676,CT7AQP/P
CT/TM-036,Portugal,TrÃ¡s-os-Montes e Alto Douro,Corisco,-7.9009,41.3774,4,0,40656,73050,11,45641,CT2IWW/P
CT/TM-037,Portugal,TrÃ¡s-os-Montes e Alto Douro,Faro,-7.1914,41.3659,4,0,40656,73050,4,44440,CT1MH/P
CT/TM-038,Portugal,TrÃ¡s-os-Montes e Alto Douro,Rebordondo,-7.6036,41.6957,4,0,40656,73050,8,45592,CT2IWW/P
CT/TM-039,Portugal,TrÃ¡s-os-Montes e Alto Douro,PaixÃ£o,-6.7756,41.5099,4,0,40656,73050,4,45095,CT7ARW/P
CT/TM-040,Portugal,TrÃ¡s-os-Montes e Alto Douro,Cumeada,-6.9999,41.0582,4,0,40656,73050,3,44416,CT1MH/P
CT/TM-041,Portugal,TrÃ¡s-os-Montes e Alto Douro,Penedo DurÃ£o,-6.8192,41.0568,4,0,40656,73050,7,45634,CT7/EA2WX/P
CT/TM-042,Portugal,TrÃ¡s-os-Montes e Alto Douro,Centieiro,-6.9377,41.1025,4,0,40656,73050,4,45634,CT7/EA2WX/P
CT/TM-043,Portugal,TrÃ¡s-os-Montes e Alto Douro,Bezerral,-7.8038,41.5587,4,0,40656,73050,4,45501,CT2IWW/P
CT/TM-044,Portugal,TrÃ¡s-os-Montes e Alto Douro,Cota,-7.3709,41.2835,2,0,40656,73050,3,44440,CT1MH/P
CT/TM-045,Portugal,TrÃ¡s-os-Montes e Alto Douro,Cubo,-7.1876,41.4125,1,0,40656,73050,4,44440,CT1MH/P
CT/TM-046,Portugal,TrÃ¡s-os-Montes e Alto Douro,SÃ£o Silvestre de Cimo do Douro,-7.9022,41.1492,1,0,40656,73050,12,45473,CT2IWW/P
CT/TM-047,Portugal,TrÃ¡s-os-Montes e Alto Douro,Abreiro,-7.3157,41.3502,1,0,40656,73050,3,44440,CT1MH/P
CT/TM-048,Portugal,TrÃ¡s-os-Montes e Alto Douro,SÃ£o Pedro,-7.7706,41.1844,1,0,40656,73050,12,45557,CT2IWW/P
CT/TM-049,Portugal,TrÃ¡s-os-Montes e Alto Douro,Larouco,-7.7249,41.88271,10,3,45017,73050,10,45656,CT1MH/P
CT/TM-050,Portugal,TrÃ¡s-os-Montes e Alto Douro,Serra de Variz,-6.6222,41.3526,6,0,45017,73050,2,45200,CT2HOV/P
CT/TM-051,Portugal,TrÃ¡s-os-Montes e Alto Douro,Monte Farinha,-7.9159,41.4164,6,0,45017,73050,9,45644,CT1JML/P
CT/TM-052,Portugal,TrÃ¡s-os-Montes e Alto Douro,Figueira,-6.7325,41.3173,6,0,45017,73050,3,45520,CT7/EA2WX/P
CT/TM-053,Portugal,TrÃ¡s-os-Montes e Alto Douro,Reboredo,-7.0181,41.1667,6,0,45017,73050,2,45200,CT2HOV/P
CT/TM-054,Portugal,TrÃ¡s-os-Montes e Alto Douro,Bandeira,-7.564,41.7402,4,0,45017,73050,3,45592,CT2IWW/P
CT/TM-055,Portugal,TrÃ¡s-os-Montes e Alto Douro,Senhora da AssunÃ§Ã£o,-7.1803,41.3486,4,0,45017,73050,3,45516,CT7/EA2WX/P
CT/TM-056,Portugal,TrÃ¡s-os-Montes e Alto Douro,Santa BÃ¡rbara,-7.5176,41.6692,4,0,45017,73050,5,45592,CT2IWW/P
CT/TM-057,Portugal,TrÃ¡s-os-Montes e Alto Douro,Guieiro,-6.6901,41.7873,4,0,45017,73050,2,45200,CT2HOV/P
CT/TM-058,Portugal,TrÃ¡s-os-Montes e Alto Douro,Freixiel,-7.2474,41.3293,2,0,45017,73050,2,45199,CT2HOV/P
CT/TM-059,Portugal,TrÃ¡s-os-Montes e Alto Douro,Castelo de Sobreira,-7.3495,41.3544,1,0,45017,73050,2,45199,CT2HOV/P
CT3/MI-001,Madeira,Madeira,Pico Ruivo de Santana,-16.943,32.759,10,0,41183,73050,60,45670,CT9/PB2T/P
CT3/MI-002,Madeira,Madeira,Pico Grande,-16.9875,32.7373,6,0,41183,73050,18,45455,CT9/HB9WDE/P
CT3/MI-004,Madeira,Madeira,Pico do Arieiro,-16.9287,32.7364,8,0,41183,73050,75,45669,CT9/PB2T/P
CT3/MI-005,Madeira,Madeira,Pico Casado,-16.9833,32.7563,6,0,41183,73050,7,44840,CT9/M0YCJ/P
CT3/MI-006,Madeira,Madeira,Pico Ruivo do Paul,-17.0801,32.7771,6,0,41183,73050,59,45676,CT9/DL3KDP
CT3/MI-007,Madeira,Madeira,Queimadas,-16.9961,32.782,4,0,41183,73050,2,45560,CT9/SP5RI/P
CT3/MI-008,Madeira,Madeira,Pico Chao dos Terreiros,-17.0015,32.7164,4,0,41183,73050,28,45674,CS9/K2XYL/P
CT3/MI-009,Madeira,Madeira,Pico da Coroa,-16.7917,32.7564,2,0,41183,73050,5,45562,CT9/SP5RI/P
CT3/MI-010,Madeira,Madeira,Pico do Castanho,-16.7638,32.7457,1,0,41183,73050,7,45674,CT9/DL3KDP
CT3/MI-011,Madeira,Madeira,Pico Penha de Aguia,-16.8415,32.7792,1,0,41183,73050,18,45677,CT9/DL3KDP
CT3/PS-001,Madeira,Porto Santo,Pico do Facho,-16.3235,33.0843,1,0,41609,73050,5,45154,CT9/SP9WZS/P
CT3/PS-002,Madeira,Porto Santo,Pico Branco,-16.3033,33.0937,1,0,41609,73050,2,45185,CT7AFI/P
CT3/PS-004,Madeira,Porto Santo,EspigÃ£o,-16.383,33.0423,1,0,41609,73050,6,45154,CT9/SP9WZS/P
CU/CV-001,Azores,Corvo,Estreitinho,-31.11507,39.69947,4,0,41974,73050,1,45437,CT8/OE5FSM/P
CU/FA-001,Azores,Faial,CabeÃ§o Gordo,-28.71296,38.57609,8,0,41974,73050,9,45445,CT2HOV/P
CU/FA-002,Azores,Faial,CabeÃ§o Verde,-28.79694,38.5919,1,0,41974,73050,4,45361,CT8/DL3KDP
CU/FL-001,Azores,Flores,Morro Alto,-31.22037,39.46325,6,0,41974,73050,5,42985,CT8/DK7MG/P
CU/FL-002,Azores,Flores,Marcela,-31.21516,39.4199,4,0,41974,73050,1,42985,CT8/DK7MG/P
CU/FL-004,Azores,Flores,Madeira Seca,-31.22271,39.38417,2,0,41974,73050,1,42984,CT8/DK7MG/P
CU/GR-001,Azores,Graciosa,Pico Furna Enxofre,-27.96648,39.02133,1,0,41974,73050,2,42945,CT8/HB9DPR/P
CU/GR-002,Azores,Graciosa,Dormida,-28.00976,39.03739,1,0,41974,73050,2,43397,CT2IUV/P
CU/GR-003,Azores,Graciosa,Pico do Facho,-27.99801,39.06098,1,0,41974,73050,3,42943,CT8/HB9DPR/P
CU/PI-001,Azores,Pico,Montanha do Pico,-28.39933,38.46869,10,3,41974,73050,6,44740,CT8/HB9CYX/P
CU/PI-002,Azores,Pico,Cabeco do Escalvado,-28.21395,38.44056,8,0,41974,73050,4,45444,CT1HIX/P
CU/SJ-001,Azores,Sao Jorge,Pico da Esperanca,-28.07404,38.65057,8,0,41974,73050,7,45368,CT8/DL3KDP
CU/SJ-002,Azores,Sao Jorge,Pico dos Frades,-27.88931,38.59013,6,0,41974,73050,1,42990,CT8/DK7MG/P
CU/SM-001,Azores,SÃ£o Miguel,Pico da Vara,-25.21115,37.8095,10,0,41974,73050,9,45607,CT8/KJ3D
CU/SM-002,Azores,SÃ£o Miguel,Pico da Barrosa,-25.49144,37.76043,6,0,41974,73050,14,45467,CT8/OK1AA/P
